{
"type": "FeatureCollection",
"name": "CONV_URB_P",
"crs": { "type": "name", "properties": { "name": "urn:ogc:def:crs:OGC:1.3:CRS84" } },
"features": [
{ "type": "Feature", "properties": { "COD": "379", "Convenzioni_Nominativo": "BRESCIANI CONCERIA", "Convenzioni_Data_Conv": "1968\/07\/26", "Convenzioni_Localita": "VIA CAPRETTI", "Convenzioni_Oggetto": "STRADE E VINCOLO NON AEDIFICANDI", "Convenzioni_Rif_Note": "N.C.T.R. FG. 2  1^ CIRC." }, "geometry": { "type": "Point", "coordinates": [ 10.223079, 45.585392, 0.0 ] } },
{ "type": "Feature", "properties": { "COD": "764", "Convenzioni_Nominativo": "PATERLINI E TONOLINI S.P.A.", "Convenzioni_Data_Conv": "1998\/03\/18", "Convenzioni_Localita": "VIA FERRINI", "Convenzioni_Oggetto": "OPERE DI URBANIZZAZIONE, CESSIONE DI AREE E SERVITU' DI USO PUBBLICO", "Convenzioni_Rif_Note": "N.C.T.R. FG. 31  1^ CIRC." }, "geometry": { "type": "Point", "coordinates": [ 10.227386, 45.56573, 0.0 ] } },
{ "type": "Feature", "properties": { "COD": "765", "Convenzioni_Nominativo": "ZANOTTI SANTO S.R.L.", "Convenzioni_Data_Conv": "1995\/05\/08", "Convenzioni_Localita": "VIA FERRINI", "Convenzioni_Oggetto": "OPERE DI URBANIZZAZIONE, CESSIONE DI AREE, SERVITU' DI USO PUBBLICO", "Convenzioni_Rif_Note": "N.C.T.R. FG. 31  1^ CIRC." }, "geometry": { "type": "Point", "coordinates": [ 10.227932, 45.565927, 0.0 ] } },
{ "type": "Feature", "properties": { "COD": "554", "Convenzioni_Nominativo": "SEICASE S.A.S. DI L.GROSSI", "Convenzioni_Data_Conv": "1974\/07\/23", "Convenzioni_Localita": "VIA RAZZICHE", "Convenzioni_Oggetto": "STRADE - PARCHEGGI - VERDE PUBBLICO - COPERTURA FOSSO", "Convenzioni_Rif_Note": "N.C.T.R. FGG. 29-41-43  1^ CIRC." }, "geometry": { "type": "Point", "coordinates": [ 10.213295, 45.562589, 0.0 ] } },
{ "type": "Feature", "properties": { "COD": "480", "Convenzioni_Nominativo": "LODA", "Convenzioni_Data_Conv": "1972\/04\/11", "Convenzioni_Localita": "VIA STRETTA", "Convenzioni_Oggetto": "VINCOLO PROVVISORIETA' RAMPA E PASSO CARRAIO", "Convenzioni_Rif_Note": "N.C.T.R. FG. 43  1^ CIRC." }, "geometry": { "type": "Point", "coordinates": [ 10.219675, 45.560273, 0.0 ] } },
{ "type": "Feature", "properties": { "COD": "28", "Convenzioni_Nominativo": "ABENI - PICCINI - SARASINI", "Convenzioni_Data_Conv": "1962\/06\/05", "Convenzioni_Localita": "VIA VENETO", "Convenzioni_Oggetto": "STRADE", "Convenzioni_Rif_Note": "N.C.T.R. FG. 68  1^ CIRC." }, "geometry": { "type": "Point", "coordinates": [ 10.219191, 45.556416, 0.0 ] } },
{ "type": "Feature", "properties": { "COD": "219", "Convenzioni_Nominativo": "DAMIANI DARIO E VENTURELLI FRANCESCO", "Convenzioni_Data_Conv": "1964\/11\/16", "Convenzioni_Localita": "VIA VITTORIO VENETO", "Convenzioni_Oggetto": "STRADE", "Convenzioni_Rif_Note": "N.C.T.R. FG. 68  1^ CIRC." }, "geometry": { "type": "Point", "coordinates": [ 10.218068, 45.55575, 0.0 ] } },
{ "type": "Feature", "properties": { "COD": "137", "Convenzioni_Nominativo": "LEGNAMI PASOTTI", "Convenzioni_Data_Conv": "1963\/12\/02", "Convenzioni_Localita": "VIA VALLE - VIA BAGNI", "Convenzioni_Oggetto": "STRADE", "Convenzioni_Rif_Note": "N.C.T.R. FG. 68  1^ CIRC." }, "geometry": { "type": "Point", "coordinates": [ 10.219478, 45.55352, 0.0 ] } },
{ "type": "Feature", "properties": { "COD": "469", "Convenzioni_Nominativo": "BERNARDELLI", "Convenzioni_Data_Conv": "1971\/10\/05", "Convenzioni_Localita": "VIA DAMIANO CHIESA", "Convenzioni_Oggetto": "STRADE E VERDE PUBBLICO", "Convenzioni_Rif_Note": "N.C.T.R. FG. 69  1^ CIRC." }, "geometry": { "type": "Point", "coordinates": [ 10.222909, 45.553914, 0.0 ] } },
{ "type": "Feature", "properties": { "COD": "673", "Convenzioni_Nominativo": "IMMOBILIARE PANORAMA S.R.L.", "Convenzioni_Data_Conv": "1990\/05\/04", "Convenzioni_Localita": "VIA CIPANI - VIA TRENTO", "Convenzioni_Oggetto": "STRADE - ONERI DI URBANIZZAZIONE", "Convenzioni_Rif_Note": "N.C.T.R. FG. 69  1^ CIRC." }, "geometry": { "type": "Point", "coordinates": [ 10.225446, 45.553644, 0.0 ] } },
{ "type": "Feature", "properties": { "COD": "249", "Convenzioni_Nominativo": "SOARDI JOSE'", "Convenzioni_Data_Conv": "1965\/07\/27", "Convenzioni_Localita": "VIA AMBARAGA", "Convenzioni_Oggetto": "STRADE", "Convenzioni_Rif_Note": "N.C.T.R. FG. 22  2^ CIRC." }, "geometry": { "type": "Point", "coordinates": [ 10.240888, 45.567789, 0.0 ] } },
{ "type": "Feature", "properties": { "COD": "256", "Convenzioni_Nominativo": null, "Convenzioni_Data_Conv": null, "Convenzioni_Localita": null, "Convenzioni_Oggetto": "SOPPRESSA", "Convenzioni_Rif_Note": null }, "geometry": { "type": "Point", "coordinates": [ 10.224453, 45.545239, 0.0 ] } },
{ "type": "Feature", "properties": { "COD": "206", "Convenzioni_Nominativo": "FEDELE PIETRO", "Convenzioni_Data_Conv": "1964\/10\/02", "Convenzioni_Localita": "VIA COLLEFIORITO", "Convenzioni_Oggetto": "STRADE", "Convenzioni_Rif_Note": "N.C.T.R. FG. 96  2^ CIRC." }, "geometry": { "type": "Point", "coordinates": [ 10.232223, 45.544861, 0.0 ] } },
{ "type": "Feature", "properties": { "COD": "363", "Convenzioni_Nominativo": "RINCHETTI - TASSI", "Convenzioni_Data_Conv": "1968\/05\/14", "Convenzioni_Localita": "VIA UGOLINI", "Convenzioni_Oggetto": "SERVITU' NON SOPRAELEVAZIONE FABBRICATO", "Convenzioni_Rif_Note": "N.C.T.R. FG. 61  3^ CIRC." }, "geometry": { "type": "Point", "coordinates": [ 10.190432, 45.556813, 0.0 ] } },
{ "type": "Feature", "properties": { "COD": "353", "Convenzioni_Nominativo": "RINCHETTI - TASSI - TISI - PERONI", "Convenzioni_Data_Conv": "1967\/11\/21", "Convenzioni_Localita": "VIA UGOLINI", "Convenzioni_Oggetto": "VINCOLO NON SOPRAELEVAZIONE FABBRICATO", "Convenzioni_Rif_Note": "N.C.T.R. FG. 61  3^ CIRC." }, "geometry": { "type": "Point", "coordinates": [ 10.190188, 45.556749, 0.0 ] } },
{ "type": "Feature", "properties": { "COD": "371", "Convenzioni_Nominativo": "FAMIGLIA BRESCIANA", "Convenzioni_Data_Conv": "1968\/07\/12", "Convenzioni_Localita": "VIA VIOLINO DI SOPRA", "Convenzioni_Oggetto": "SERVITU' PASSAGGIO PORTICI", "Convenzioni_Rif_Note": "N.C.T.R. FG. 105  3^ CIRC." }, "geometry": { "type": "Point", "coordinates": [ 10.169874, 45.542328, 0.0 ] } },
{ "type": "Feature", "properties": { "COD": "702", "Convenzioni_Nominativo": "COOPERATIVA LA FAMIGLIA NUOVO VIOLINO", "Convenzioni_Data_Conv": "1994\/10\/04", "Convenzioni_Localita": "Q.RE VIOLINO", "Convenzioni_Oggetto": "OPERE DI URBANIZZAZIONE - CESSIONE DI AREE", "Convenzioni_Rif_Note": "N.C.T.R. FG. 105  3^ CIRC." }, "geometry": { "type": "Point", "coordinates": [ 10.165038, 45.543702, 0.0 ] } },
{ "type": "Feature", "properties": { "COD": "709", "Convenzioni_Nominativo": "ELECTA S.R.L.", "Convenzioni_Data_Conv": "1996\/01\/12", "Convenzioni_Localita": "VIA MILANO - TANGENZIALE OVEST", "Convenzioni_Oggetto": "OPERE DI URBANIZZAZIONE - CESSIONE DI AREE", "Convenzioni_Rif_Note": "N.C.T.R. FG. 80  4^ CIRC." }, "geometry": { "type": "Point", "coordinates": [ 10.186617, 45.548023, 0.0 ] } },
{ "type": "Feature", "properties": { "COD": "230", "Convenzioni_Nominativo": "CANCARINI GIOVANNI", "Convenzioni_Data_Conv": "1964\/11\/18", "Convenzioni_Localita": "VIA GERRE", "Convenzioni_Oggetto": "STRADE - VERDE PUBBLICO - AREA SPORTIVA", "Convenzioni_Rif_Note": "N.C.T.R. FG. 80  4^ CIRC." }, "geometry": { "type": "Point", "coordinates": [ 10.191107, 45.548383, 0.0 ] } },
{ "type": "Feature", "properties": { "COD": "825", "Convenzioni_Nominativo": "IVECO S.P.A.", "Convenzioni_Data_Conv": "2008\/07\/03", "Convenzioni_Localita": "VIA PETRARCA", "Convenzioni_Oggetto": "ATTO INTEGRATIVO DELLA CONVENZIONE URBANISTICA 609", "Convenzioni_Rif_Note": "N.C.T.R. FG. 81  4^ CIRCOSCRIZIONE" }, "geometry": { "type": "Point", "coordinates": [ 10.197386, 45.55187, 0.0 ] } },
{ "type": "Feature", "properties": { "COD": "8", "Convenzioni_Nominativo": "PEZZOTTI BARBARA E STEFINI MARIO", "Convenzioni_Data_Conv": "1961\/07\/14", "Convenzioni_Localita": "VIA CARDUCCI - VIA STOPPANI - VIA MANARA", "Convenzioni_Oggetto": "STRADE - AREA D'INTERESSE PUBBLICO", "Convenzioni_Rif_Note": "N.C.T.R. FG. 83 4^ CIRC." }, "geometry": { "type": "Point", "coordinates": [ 10.19715, 45.547092, 0.0 ] } },
{ "type": "Feature", "properties": { "COD": "151", "Convenzioni_Nominativo": "TOGNI FR.LLI E FILIPPINI EGIDIO", "Convenzioni_Data_Conv": "1963\/12\/19", "Convenzioni_Localita": "VIA PASCOLI", "Convenzioni_Oggetto": "SERVITU' NON AEDIFICANDI", "Convenzioni_Rif_Note": "N.C.T.R. FG. 83  4^ CIRC." }, "geometry": { "type": "Point", "coordinates": [ 10.20094, 45.546377, 0.0 ] } },
{ "type": "Feature", "properties": { "COD": "730", "Convenzioni_Nominativo": "PELLIZZARI S.R.L.", "Convenzioni_Data_Conv": "1998\/06\/23", "Convenzioni_Localita": "VIA CARDUCCI - VIA ZAMBONI", "Convenzioni_Oggetto": "CESSIONI DI AREE ED OPERE DI URBANIZZAZIONE - SERVITU' DI USO PUBBLICO", "Convenzioni_Rif_Note": "N.C.T.R. FG. 85  4^ CIRC." }, "geometry": { "type": "Point", "coordinates": [ 10.204274, 45.547418, 0.0 ] } },
{ "type": "Feature", "properties": { "COD": "721", "Convenzioni_Nominativo": "IMPRESA ARDESI ENRICO S.P.A.", "Convenzioni_Data_Conv": "1997\/10\/20", "Convenzioni_Localita": "VIA GIOSUE' CARDUCCI - VIA GIAN MARIA MAZZUCCHELLI", "Convenzioni_Oggetto": "CESSIONE DI AREE ED OPERE DI URBANIZZAZIONE - SERVITU' DI USO PUBBLICO", "Convenzioni_Rif_Note": "N.C.T.R. FG. 85  4^ CIRCOSCRIZIONE" }, "geometry": { "type": "Point", "coordinates": [ 10.206528, 45.546795, 0.0 ] } },
{ "type": "Feature", "properties": { "COD": "821", "Convenzioni_Nominativo": "OTO MELARA S.P.A.", "Convenzioni_Data_Conv": "2003\/05\/14", "Convenzioni_Localita": "VIA LUNGA", "Convenzioni_Oggetto": "OPERE DI URBANIZZAZIONE - CESSIONE DI AREE", "Convenzioni_Rif_Note": "N.C.T.R. FG. 133  4^ CIRCOSCRIZIONE" }, "geometry": { "type": "Point", "coordinates": [ 10.188285, 45.537243, 0.0 ] } },
{ "type": "Feature", "properties": { "COD": "780", "Convenzioni_Nominativo": "CO.R.C.AB. LOMBARDIA S.C.R.L.", "Convenzioni_Data_Conv": "1997\/03\/04", "Convenzioni_Localita": "VIA ROSE DI SOTTO - VIA DELLA PRESOLANA", "Convenzioni_Oggetto": "OPERE DI URBANIZZAZIONE - CESSIONE DI AREE - SERVITU' DI USO PUBBLICO", "Convenzioni_Rif_Note": "N.C.T.R. FG. 135  4^ CIRCOSCRIZIONE" }, "geometry": { "type": "Point", "coordinates": [ 10.198072, 45.53443, 0.0 ] } },
{ "type": "Feature", "properties": { "COD": "775", "Convenzioni_Nominativo": "FIN-ECO LEASING S.P.A.", "Convenzioni_Data_Conv": "2005\/01\/17", "Convenzioni_Localita": "VIA ORZINUOVI", "Convenzioni_Oggetto": "CESSIONE D'IMMOBILI E SERVITU' DI USO PUBBLICO", "Convenzioni_Rif_Note": "N.C.T.R. FG. 158  5^ CIRCOSCRIZIONE" }, "geometry": { "type": "Point", "coordinates": [ 10.177648, 45.529505, 0.0 ] } },
{ "type": "Feature", "properties": { "COD": "778", "Convenzioni_Nominativo": "S.P.A. IMMOBILIARE FIERA DI BRESCIA", "Convenzioni_Data_Conv": "2001\/05\/25", "Convenzioni_Localita": "VIA ORZINUOVI - VIA CAPRERA", "Convenzioni_Oggetto": "OPERE DI URBANIZZAZIONE - CESSIONE DI AREE - SERVITU' DI USO PUBBLICO", "Convenzioni_Rif_Note": "N.C.T.R. FGG. 157 E 158  5^ CIRCOSCRIZIONE" }, "geometry": { "type": "Point", "coordinates": [ 10.173898, 45.531015, 0.0 ] } },
{ "type": "Feature", "properties": { "COD": "197", "Convenzioni_Nominativo": "BREMBATI ANGELO", "Convenzioni_Data_Conv": "1964\/07\/23", "Convenzioni_Localita": "VIA NOCE", "Convenzioni_Oggetto": "STRADE", "Convenzioni_Rif_Note": "N.C.T.R. FG. 199  5^ CIRC." }, "geometry": { "type": "Point", "coordinates": [ 10.182938, 45.525402, 0.0 ] } },
{ "type": "Feature", "properties": { "COD": "711", "Convenzioni_Nominativo": "INTERIM INTERVENTI IMMOBILIARI E MOBILIARI S.P.A.", "Convenzioni_Data_Conv": "1996\/03\/04", "Convenzioni_Localita": "CHIESANUOVA", "Convenzioni_Oggetto": "OPERE DI URBANIZZAZIONE - CESSIONE DI AREE - SERVITU' D'USO PUBBLICO", "Convenzioni_Rif_Note": "N.C.T.R. FG. 200  5^ CIRC." }, "geometry": { "type": "Point", "coordinates": [ 10.185857, 45.521769, 0.0 ] } },
{ "type": "Feature", "properties": { "COD": "668", "Convenzioni_Nominativo": "ZUBANI - CORNALI - ZIZIOLI - MAITINI - ALTRI", "Convenzioni_Data_Conv": "1989\/06\/26", "Convenzioni_Localita": "VIA GENOVA - VIA TORINO - VIA PARENZO", "Convenzioni_Oggetto": "AREE S.P. - STRADE", "Convenzioni_Rif_Note": "N.C.T.R. FGG. 162-200-201  5^ CIRC." }, "geometry": { "type": "Point", "coordinates": [ 10.187888, 45.523549, 0.0 ] } },
{ "type": "Feature", "properties": { "COD": "800", "Convenzioni_Nominativo": "BETTONI S.P.A.", "Convenzioni_Data_Conv": "2006\/11\/28", "Convenzioni_Localita": "VIA GRANDI - VIA ROSELLI - VIA MAESTRI", "Convenzioni_Oggetto": "OPERE DI URBANIZZAZIONE - CESSIONE DI AREE - SERVITU' DI USO PUBBLICO", "Convenzioni_Rif_Note": "N.C.T.R. FGG. 227, 244 E 245 5^ CIRCOSCRIZIONE" }, "geometry": { "type": "Point", "coordinates": [ 10.164473, 45.514603, 0.0 ] } },
{ "type": "Feature", "properties": { "COD": "726", "Convenzioni_Nominativo": "C.I.B. S.R.L. ED ALTRI", "Convenzioni_Data_Conv": "1998\/03\/27", "Convenzioni_Localita": "ZONA INDUSTRIALE - LOCALITA' GIRELLI", "Convenzioni_Oggetto": "CESSIONE DI AREE ED OPERE DI URBANIZZAZIONE - SERVITU' DI USO PUBBLICO", "Convenzioni_Rif_Note": "N.C.T.R. FG. 226  5^ CIRC." }, "geometry": { "type": "Point", "coordinates": [ 10.158676, 45.521745, 0.0 ] } },
{ "type": "Feature", "properties": { "COD": "725", "Convenzioni_Nominativo": "C.I.B. 95 S.R.L.", "Convenzioni_Data_Conv": "1998\/01\/19", "Convenzioni_Localita": "ZONA INDUSTRIALE - LOCALITA' GIRELLI", "Convenzioni_Oggetto": "CESSIONE DI AREE ED OPERE DI URBANIZZAZIONE - SERVITU' DI USO PUBBLICO", "Convenzioni_Rif_Note": "N.C.T.R. FG. 226  5^ CIRC." }, "geometry": { "type": "Point", "coordinates": [ 10.158369, 45.519613, 0.0 ] } },
{ "type": "Feature", "properties": { "COD": "816", "Convenzioni_Nominativo": "ARCE GESTIONI S.P.A.", "Convenzioni_Data_Conv": "2007\/10\/09", "Convenzioni_Localita": "VIA ABBIATI", "Convenzioni_Oggetto": "OPERE DI URBANIZZAZIONE - CESSIONE DI AREE", "Convenzioni_Rif_Note": "N.C.T.R. FG. 245  5^ CIRCOSCRIZIONE" }, "geometry": { "type": "Point", "coordinates": [ 10.166604, 45.510682, 0.0 ] } },
{ "type": "Feature", "properties": { "COD": "695", "Convenzioni_Nominativo": "CEIB INVEST S.R.L.", "Convenzioni_Data_Conv": "1994\/05\/10", "Convenzioni_Localita": "VIA VERZIANO", "Convenzioni_Oggetto": "OPERE DI URBANIZZ. - CESSIONE DI AREE - SDEMANIALIZZAZIONE DI STRADA", "Convenzioni_Rif_Note": "N.C.T.R. FGG. 249-251-252  5^ CIRC." }, "geometry": { "type": "Point", "coordinates": [ 10.172651, 45.501475, 0.0 ] } },
{ "type": "Feature", "properties": { "COD": "514", "Convenzioni_Nominativo": "S.A.S. ROMANINO", "Convenzioni_Data_Conv": "1971\/07\/09", "Convenzioni_Localita": "VIA L.GAMBARA", "Convenzioni_Oggetto": "STRADE - RAMPA - VINCOLO ALTEZZA FABBRICATO", "Convenzioni_Rif_Note": "N.C.T.R. FG. 146  6^ CIRC." }, "geometry": { "type": "Point", "coordinates": [ 10.215241, 45.532549, 0.0 ] } },
{ "type": "Feature", "properties": { "COD": "77", "Convenzioni_Nominativo": "CANTU' EMENEGARDI", "Convenzioni_Data_Conv": "1962\/12\/13", "Convenzioni_Localita": "VIA CORSICA", "Convenzioni_Oggetto": "VINCOLO E VERDE PUBBLICO", "Convenzioni_Rif_Note": "N.C.T.R. FG. 166  6^ CIRC." }, "geometry": { "type": "Point", "coordinates": [ 10.207217, 45.529071, 0.0 ] } },
{ "type": "Feature", "properties": { "COD": "562", "Convenzioni_Nominativo": "SCAGLIORI E GROFFETTI", "Convenzioni_Data_Conv": "1975\/03\/06", "Convenzioni_Localita": "VIA CORSICA", "Convenzioni_Oggetto": "VINCOLO PORTICO E GIARDINO CONDOMINIALI", "Convenzioni_Rif_Note": "N.C.T.R. FG. 166  6^ CIRC." }, "geometry": { "type": "Point", "coordinates": [ 10.208322, 45.529998, 0.0 ] } },
{ "type": "Feature", "properties": { "COD": "717", "Convenzioni_Nominativo": "GEODRILL S.R.L.", "Convenzioni_Data_Conv": "1996\/10\/11", "Convenzioni_Localita": "VIA CORSICA - VIA ZARA", "Convenzioni_Oggetto": "OPERE DI URBANIZZAZIONE - CESSIONE DI AREE", "Convenzioni_Rif_Note": "N.C.T.R. FG. 166   6^ CIRC." }, "geometry": { "type": "Point", "coordinates": [ 10.209203, 45.53127, 0.0 ] } },
{ "type": "Feature", "properties": { "COD": "700", "Convenzioni_Nominativo": "IMMOBILIARE ALUFOND S.P.A. (EX JOINT S.R.L.)", "Convenzioni_Data_Conv": "1993\/12\/20", "Convenzioni_Localita": "VIA PRIVATA DE VITALIS", "Convenzioni_Oggetto": "OPERE DI URBANIZZAZIONE - CESSIONE DI AREE", "Convenzioni_Rif_Note": "N.C.T.R. FG. 168  6^ CIRC." }, "geometry": { "type": "Point", "coordinates": [ 10.211928, 45.529655, 0.0 ] } },
{ "type": "Feature", "properties": { "COD": "762", "Convenzioni_Nominativo": "MALTA S.P.A., FINPRO PALACE S.R.L. ED ALTRI", "Convenzioni_Data_Conv": "1991\/07\/12", "Convenzioni_Localita": "VIA SARDEGNA, VIA MALTA, VIA CRETA E VIA CORFU'.", "Convenzioni_Oggetto": "OPERE DI URBANIZZAZIONE E CESSIONE DI AREE", "Convenzioni_Rif_Note": "N.C.T.R. FGG. 168 E 169  6^ CIRCOSCRIZIONE" }, "geometry": { "type": "Point", "coordinates": [ 10.212778, 45.530003, 0.0 ] } },
{ "type": "Feature", "properties": { "COD": "89", "Convenzioni_Nominativo": "ANELLI GIORGIO E SECCHI ADRIANO", "Convenzioni_Data_Conv": "1962\/10\/26", "Convenzioni_Localita": "VIA PRIVATA DE VITALIS", "Convenzioni_Oggetto": "STRADE E VERDE PUBBLICO", "Convenzioni_Rif_Note": "N.C.T.R. FG. 168  6^ CIRC." }, "geometry": { "type": "Point", "coordinates": [ 10.210733, 45.528849, 0.0 ] } },
{ "type": "Feature", "properties": { "COD": "89", "Convenzioni_Nominativo": "ANELLI GIORGIO E SECCHI ADRIANO", "Convenzioni_Data_Conv": "1962\/10\/26", "Convenzioni_Localita": "VIA PRIVATA DE VITALIS", "Convenzioni_Oggetto": "STRADE E VERDE PUBBLICO", "Convenzioni_Rif_Note": "N.C.T.R. FG. 168  6^ CIRC." }, "geometry": { "type": "Point", "coordinates": [ 10.210374, 45.528907, 0.0 ] } },
{ "type": "Feature", "properties": { "COD": "642", "Convenzioni_Nominativo": "SOC. GEMMA 73", "Convenzioni_Data_Conv": "1985\/05\/23", "Convenzioni_Localita": "BRESCIA DUE", "Convenzioni_Oggetto": "CAMBIO DI DESTINAZIONE DI AREA COMPRESA NEL PIANO PARTICOLAREGG. BS 2", "Convenzioni_Rif_Note": "N.C.T.R. FG. 169  6^ CIRC." }, "geometry": { "type": "Point", "coordinates": [ 10.21171, 45.526463, 0.0 ] } },
{ "type": "Feature", "properties": { "COD": "559", "Convenzioni_Nominativo": "S.P.A. MALTA", "Convenzioni_Data_Conv": "1973\/03\/29", "Convenzioni_Localita": "CAVALCAVIA KENNEDY", "Convenzioni_Oggetto": "REGOLAMENTAZIONE COMPARTI - CONTRIBUTO URBANIZZAZIONE", "Convenzioni_Rif_Note": "N.C.T.R. FG. 169  6^ CIRC." }, "geometry": { "type": "Point", "coordinates": [ 10.213751, 45.526842, 0.0 ] } },
{ "type": "Feature", "properties": { "COD": "762", "Convenzioni_Nominativo": "MALTA S.P.A., FINPRO PALACE S.R.L. ED ALTRI", "Convenzioni_Data_Conv": "1991\/07\/12", "Convenzioni_Localita": "VIA SARDEGNA, VIA MALTA, VIA CRETA E VIA CORFU'.", "Convenzioni_Oggetto": "OPERE DI URBANIZZAZIONE E CESSIONE DI AREE", "Convenzioni_Rif_Note": "N.C.T.R. FGG. 168 E 169  6^ CIRCOSCRIZIONE" }, "geometry": { "type": "Point", "coordinates": [ 10.215013092896468, 45.528943254233887, 0.0 ] } },
{ "type": "Feature", "properties": { "COD": "679", "Convenzioni_Nominativo": "GEMMA 73-S.DOMENICO S.R.L.-ZABELLO S.R.L.-ALTRI", "Convenzioni_Data_Conv": "1991\/06\/26", "Convenzioni_Localita": "VIA LAMARMORA - VIA S.ZENO", "Convenzioni_Oggetto": "OPERE DI URBANIZZAZIONE - CESSIONE DI AREE", "Convenzioni_Rif_Note": "N.C.T.R. FGG. 170-173  6^ CIRC." }, "geometry": { "type": "Point", "coordinates": [ 10.212786, 45.52395, 0.0 ] } },
{ "type": "Feature", "properties": { "COD": "570", "Convenzioni_Nominativo": "S.P.A. LA PRIMAVERA", "Convenzioni_Data_Conv": "1975\/07\/07", "Convenzioni_Localita": "VIA CIPRO", "Convenzioni_Oggetto": "STRADE - REGOLAMENTAZIONE COMPARTI", "Convenzioni_Rif_Note": "N.C.T.R. FG. 170  6^ CIRC." }, "geometry": { "type": "Point", "coordinates": [ 10.211438, 45.524293, 0.0 ] } },
{ "type": "Feature", "properties": { "COD": "647", "Convenzioni_Nominativo": "SOC. BRESCIANA IMMOBILIARE - SOC. MALTA - ALTRI", "Convenzioni_Data_Conv": "1986\/10\/09", "Convenzioni_Localita": "VIA MALTA - VIA CEFALONIA", "Convenzioni_Oggetto": "STRADE - PARCHEGGI - VERDE PUBBLICO", "Convenzioni_Rif_Note": "N.C.T.R. FG. 171  6^ CIRC." }, "geometry": { "type": "Point", "coordinates": [ 10.216077, 45.523529, 0.0 ] } },
{ "type": "Feature", "properties": { "COD": "679", "Convenzioni_Nominativo": "GEMMA 73-S.DOMENICO S.R.L.-ZABELLO S.R.L.-ALTRI", "Convenzioni_Data_Conv": "1991\/06\/26", "Convenzioni_Localita": "VIA LAMARMORA - VIA S.ZENO", "Convenzioni_Oggetto": "OPERE DI URBANIZZAZIONE - CESSIONE DI AREE", "Convenzioni_Rif_Note": "N.C.T.R. FGG. 170-173  6^ CIRC." }, "geometry": { "type": "Point", "coordinates": [ 10.218257, 45.5224, 0.0 ] } },
{ "type": "Feature", "properties": { "COD": "679", "Convenzioni_Nominativo": "GEMMA 73-S.DOMENICO S.R.L.-ZABELLO S.R.L.-ALTRI", "Convenzioni_Data_Conv": "1991\/06\/26", "Convenzioni_Localita": "VIA LAMARMORA - VIA S.ZENO", "Convenzioni_Oggetto": "OPERE DI URBANIZZAZIONE - CESSIONE DI AREE", "Convenzioni_Rif_Note": "N.C.T.R. FGG. 170-173  6^ CIRC." }, "geometry": { "type": "Point", "coordinates": [ 10.213413, 45.521189, 0.0 ] } },
{ "type": "Feature", "properties": { "COD": "761", "Convenzioni_Nominativo": "G.P. IMMOBILIARE S.R.L.", "Convenzioni_Data_Conv": "1998\/02\/27", "Convenzioni_Localita": "VIA OMASSI, VIA PILASTRONI, VIA VITTIME CIVILI DI GUERRA", "Convenzioni_Oggetto": "OPERE DI URBANIZZAZIONE, CESSIONE DI AREE E SERVITU' DI USO PUBBLICO.", "Convenzioni_Rif_Note": "N.C.T.R. FG. 202  6^ CIRCOSCRIZIONE" }, "geometry": { "type": "Point", "coordinates": [ 10.202519, 45.521752, 0.0 ] } },
{ "type": "Feature", "properties": { "COD": "634", "Convenzioni_Nominativo": "SOC. S.ZENO E FERRONATO RITA NIVES", "Convenzioni_Data_Conv": "1982\/11\/23", "Convenzioni_Localita": "VIA S.ZENO", "Convenzioni_Oggetto": "STRADE - PARCHEGGI - VERDE PUBBLICO", "Convenzioni_Rif_Note": "N.C.T.R. FG. 206  6^ CIRC." }, "geometry": { "type": "Point", "coordinates": [ 10.216908, 45.518018, 0.0 ] } },
{ "type": "Feature", "properties": { "COD": "630", "Convenzioni_Nominativo": "SOC.IMM. CADORE DI LONATI, CANCARINI ED EREDI POLI", "Convenzioni_Data_Conv": "1982\/03\/10", "Convenzioni_Localita": "VIA ZIZIOLA", "Convenzioni_Oggetto": "STRADE - PARCHEGGI - VERDE PUBBLICO", "Convenzioni_Rif_Note": "N.C.T.R. FG. 206  6^ CIRC." }, "geometry": { "type": "Point", "coordinates": [ 10.219809, 45.519016, 0.0 ] } },
{ "type": "Feature", "properties": { "COD": "630", "Convenzioni_Nominativo": "SOC.IMM. CADORE DI LONATI, CANCARINI ED EREDI POLI", "Convenzioni_Data_Conv": "1982\/03\/10", "Convenzioni_Localita": "VIA ZIZIOLA", "Convenzioni_Oggetto": "STRADE - PARCHEGGI - VERDE PUBBLICO", "Convenzioni_Rif_Note": "N.C.T.R. FG. 206  6^ CIRC." }, "geometry": { "type": "Point", "coordinates": [ 10.21804, 45.517125, 0.0 ] } },
{ "type": "Feature", "properties": { "COD": "630", "Convenzioni_Nominativo": "SOC.IMM. CADORE DI LONATI, CANCARINI ED EREDI POLI", "Convenzioni_Data_Conv": "1982\/03\/10", "Convenzioni_Localita": "VIA ZIZIOLA", "Convenzioni_Oggetto": "STRADE - PARCHEGGI - VERDE PUBBLICO", "Convenzioni_Rif_Note": "N.C.T.R. FG. 206  6^ CIRC." }, "geometry": { "type": "Point", "coordinates": [ 10.217771, 45.516585, 0.0 ] } },
{ "type": "Feature", "properties": { "COD": "630", "Convenzioni_Nominativo": "SOC.IMM. CADORE DI LONATI, CANCARINI ED EREDI POLI", "Convenzioni_Data_Conv": "1982\/03\/10", "Convenzioni_Localita": "VIA ZIZIOLA", "Convenzioni_Oggetto": "STRADE - PARCHEGGI - VERDE PUBBLICO", "Convenzioni_Rif_Note": "N.C.T.R. FG. 206  6^ CIRC." }, "geometry": { "type": "Point", "coordinates": [ 10.21639, 45.515032, 0.0 ] } },
{ "type": "Feature", "properties": { "COD": "431", "Convenzioni_Nominativo": "BIANCHINI G.", "Convenzioni_Data_Conv": "1970\/07\/28", "Convenzioni_Localita": "S.S. GOITESE (BS-MN)", "Convenzioni_Oggetto": "STRADE", "Convenzioni_Rif_Note": "N.C.T.R. FG. 274  7^ CIRC." }, "geometry": { "type": "Point", "coordinates": [ 10.21599, 45.516599, 0.0 ] } },
{ "type": "Feature", "properties": { "COD": "319", "Convenzioni_Nominativo": "FILIPPINI ED ALTRI", "Convenzioni_Data_Conv": "1967\/06\/13", "Convenzioni_Localita": "VIA RIONE", "Convenzioni_Oggetto": "VINCOLO NON AEDIFICANDI", "Convenzioni_Rif_Note": "N.C.T.R. FG. 257  6^ CIRC." }, "geometry": { "type": "Point", "coordinates": [ 10.208535, 45.496174, 0.0 ] } },
{ "type": "Feature", "properties": { "COD": "752", "Convenzioni_Nominativo": "LONATI S.P.A.", "Convenzioni_Data_Conv": "2000\/04\/07", "Convenzioni_Localita": "VIA S.POLO", "Convenzioni_Oggetto": "OPERE DI URBANIZZ. - CESSIONE  AREE - PERMUTA - PRESCRIZI. PARTICOLARI", "Convenzioni_Rif_Note": "N.C.T.R. FGG. 179-182-183 7^ CIRCOSCRIZIONE" }, "geometry": { "type": "Point", "coordinates": [ 10.244324, 45.525747, 0.0 ] } },
{ "type": "Feature", "properties": { "COD": "349", "Convenzioni_Nominativo": "SOC. BENZOGAS", "Convenzioni_Data_Conv": "1968\/01\/09", "Convenzioni_Localita": "VIA S.POLO", "Convenzioni_Oggetto": "VINCOLO NON AEDIFICANDI", "Convenzioni_Rif_Note": "N.C.T.R. FG. 182  7^ CIRC." }, "geometry": { "type": "Point", "coordinates": [ 10.246872, 45.521147, 0.0 ] } },
{ "type": "Feature", "properties": { "COD": "241", "Convenzioni_Nominativo": "COMINI VITTORIO E C.", "Convenzioni_Data_Conv": "1965\/06\/22", "Convenzioni_Localita": "VIA MANTOVA", "Convenzioni_Oggetto": "STRADE", "Convenzioni_Rif_Note": "N.C.T.R. FG. 179  7^ CIRC." }, "geometry": { "type": "Point", "coordinates": [ 10.239207, 45.528966, 0.0 ] } },
{ "type": "Feature", "properties": { "COD": "672", "Convenzioni_Nominativo": "LA FAMIGLIA DI VIA ZIZIOLA - ZUBANI - FUSANI", "Convenzioni_Data_Conv": "1990\/07\/03", "Convenzioni_Localita": "TANG. SUD, VIA PALAZZINA, VIA ZIZIOLA, VIA ARDEATINE", "Convenzioni_Oggetto": "AREE S.P. - STRADE", "Convenzioni_Rif_Note": "N.C.T.R. FG. 233  7^ CIRC." }, "geometry": { "type": "Point", "coordinates": [ 10.22119, 45.512593, 0.0 ] } },
{ "type": "Feature", "properties": { "COD": "32", "Convenzioni_Nominativo": "CODENOTTI GIULIA", "Convenzioni_Data_Conv": "1962\/06\/06", "Convenzioni_Localita": "VIA ZIZIOLA", "Convenzioni_Oggetto": "STRADE", "Convenzioni_Rif_Note": "N.C.T.R. FG. 233  7^ CIRC." }, "geometry": { "type": "Point", "coordinates": [ 10.222485, 45.512665, 0.0 ] } },
{ "type": "Feature", "properties": { "COD": "32", "Convenzioni_Nominativo": "CODENOTTI GIULIA", "Convenzioni_Data_Conv": "1962\/06\/06", "Convenzioni_Localita": "VIA ZIZIOLA", "Convenzioni_Oggetto": "STRADE", "Convenzioni_Rif_Note": "N.C.T.R. FG. 233  7^ CIRC." }, "geometry": { "type": "Point", "coordinates": [ 10.222836, 45.514045, 0.0 ] } },
{ "type": "Feature", "properties": { "COD": "625", "Convenzioni_Nominativo": "SOC. COOP. DON MILANI", "Convenzioni_Data_Conv": "1981\/02\/02", "Convenzioni_Localita": "VIA DELLE BETTOLE (BUFFALORA)", "Convenzioni_Oggetto": "STRADE - PARCHEGGI - VERDE PUBBLICO", "Convenzioni_Rif_Note": "N.C.T.R. FG. 274  7^ CIRC." }, "geometry": { "type": "Point", "coordinates": [ 10.273642, 45.493051, 0.0 ] } },
{ "type": "Feature", "properties": { "COD": "658", "Convenzioni_Nominativo": "LEONI-ALBERTI-IMM. PACE S.R.L.-LA FAMIGLIA BUFFAL.", "Convenzioni_Data_Conv": "1988\/10\/17", "Convenzioni_Localita": "BUFFALORA", "Convenzioni_Oggetto": "OPERE DI URBANIZZAZIONE - CESSIONE AREE", "Convenzioni_Rif_Note": "N.C.T.R. FGG. 273-274-275  7^ CIRC." }, "geometry": { "type": "Point", "coordinates": [ 10.278221, 45.495942, 0.0 ] } },
{ "type": "Feature", "properties": { "COD": "706", "Convenzioni_Nominativo": "TECNOIMMOBILIARE COSTRUZIONI S.R.L.", "Convenzioni_Data_Conv": "1995\/04\/11", "Convenzioni_Localita": "VIA PALAZZINA - VIA BOVES", "Convenzioni_Oggetto": "OPERE DI URBANIZZAZIONE - CESSIONE DI AREE", "Convenzioni_Rif_Note": "N.C.T.R. FG. 207  7^ CIRC." }, "geometry": { "type": "Point", "coordinates": [ 10.22208, 45.517717, 0.0 ] } },
{ "type": "Feature", "properties": { "COD": "50", "Convenzioni_Nominativo": "FRANCESCONI FR.LLI E AMIGASSI PAOLA", "Convenzioni_Data_Conv": "1962\/08\/30", "Convenzioni_Localita": "VIA VOLTA", "Convenzioni_Oggetto": "STRADE E VERDE PUBBLICO", "Convenzioni_Rif_Note": "N.C.T.R. FG. 207  7^ CIRC." }, "geometry": { "type": "Point", "coordinates": [ 10.2227, 45.5181, 0.0 ] } },
{ "type": "Feature", "properties": { "COD": "560", "Convenzioni_Nominativo": null, "Convenzioni_Data_Conv": null, "Convenzioni_Localita": null, "Convenzioni_Oggetto": "SOPPRESSA", "Convenzioni_Rif_Note": null }, "geometry": { "type": "Point", "coordinates": [ 10.230924, 45.512995, 0.0 ] } },
{ "type": "Feature", "properties": { "COD": "877", "Convenzioni_Nominativo": "CAUTO-CANTIERE AUTOLIMITAZIONE COOP. SOCIALE A R.L.", "Convenzioni_Data_Conv": "2011\/12\/21", "Convenzioni_Localita": "VIA BUFFALORA", "Convenzioni_Oggetto": "TRASFERIMENTO DI SERVITU' DI USO PUBBLICO ED OPERE DI URBANIZZAZIONE", "Convenzioni_Rif_Note": "N.C.T.R. FG. 223  7^ CIRCOSCRIZIONE" }, "geometry": { "type": "Point", "coordinates": [ 10.282896, 45.514255, 0.0 ] } },
{ "type": "Feature", "properties": { "COD": "96", "Convenzioni_Nominativo": "PAGANI ANGELINA E MARIA", "Convenzioni_Data_Conv": "1963\/02\/27", "Convenzioni_Localita": "VIA ARICI", "Convenzioni_Oggetto": "STRADE E VERDE STRADALE", "Convenzioni_Rif_Note": "N.C.T.R. FG. 240  7^ CIRC." }, "geometry": { "type": "Point", "coordinates": [ 10.25817, 45.508617, 0.0 ] } },
{ "type": "Feature", "properties": { "COD": "7", "Convenzioni_Nominativo": "MORETTI LIVIA IN RUSSO", "Convenzioni_Data_Conv": "1961\/04\/08", "Convenzioni_Localita": "VIA ARICI", "Convenzioni_Oggetto": "STRADE", "Convenzioni_Rif_Note": "N.C.T.R. FG. 240 7^ CIRC." }, "geometry": { "type": "Point", "coordinates": [ 10.261336, 45.509785, 0.0 ] } },
{ "type": "Feature", "properties": { "COD": "53", "Convenzioni_Nominativo": "BERETTI E BULGARI", "Convenzioni_Data_Conv": "1962\/07\/05", "Convenzioni_Localita": "VIA BETTOLE", "Convenzioni_Oggetto": "VINCOLO VOLUMETRIA", "Convenzioni_Rif_Note": "N.C.T.R. FG. 266  7^ CIRC." }, "geometry": { "type": "Point", "coordinates": [ 10.26068, 45.501936, 0.0 ] } },
{ "type": "Feature", "properties": { "COD": "22", "Convenzioni_Nominativo": "TONOLINI E LUSSIGNOLI", "Convenzioni_Data_Conv": "1962\/06\/04", "Convenzioni_Localita": "S.POLO", "Convenzioni_Oggetto": "VINCOLO NON AEDIFICANDI", "Convenzioni_Rif_Note": "N.C.T.R. FG. 278  7^ CIRC." }, "geometry": { "type": "Point", "coordinates": [ 10.259808, 45.491613, 0.0 ] } },
{ "type": "Feature", "properties": { "COD": "257", "Convenzioni_Nominativo": "FAGLIA FR.LLI", "Convenzioni_Data_Conv": "1965\/08\/05", "Convenzioni_Localita": "MADDALENA", "Convenzioni_Oggetto": "STRADE", "Convenzioni_Rif_Note": "N.C.T.R. FG. 100  8^ CIRC." }, "geometry": { "type": "Point", "coordinates": [ 10.271047, 45.545735, 0.0 ] } },
{ "type": "Feature", "properties": { "COD": "596", "Convenzioni_Nominativo": "GAETI", "Convenzioni_Data_Conv": "1977\/05\/09", "Convenzioni_Localita": "VIA TURATI", "Convenzioni_Oggetto": "PROVVISORIETA' OPERE EDILI E RINUNCIA INDENNITA'", "Convenzioni_Rif_Note": "N.C.T.R. FG. 123  8^ CIRC." }, "geometry": { "type": "Point", "coordinates": [ 10.232307, 45.53678, 0.0 ] } },
{ "type": "Feature", "properties": { "COD": "78", "Convenzioni_Nominativo": "PIERINI ADELE", "Convenzioni_Data_Conv": "1962\/12\/13", "Convenzioni_Localita": "VIA VALSORDA", "Convenzioni_Oggetto": "VINCOLI IN LOTTI PRIVATI - LOTTIZZAZIONE", "Convenzioni_Rif_Note": "N.C.T.R. FG. 125  8^ CIRC." }, "geometry": { "type": "Point", "coordinates": [ 10.24457, 45.538145, 0.0 ] } },
{ "type": "Feature", "properties": { "COD": "187", "Convenzioni_Nominativo": "TOGNAZZI ANGELO", "Convenzioni_Data_Conv": "1964\/04\/15", "Convenzioni_Localita": "VIA S.ORSOLA", "Convenzioni_Oggetto": "STRADE", "Convenzioni_Rif_Note": "N.C.T.R. FG. 156  8^ CIRC." }, "geometry": { "type": "Point", "coordinates": [ 10.293006, 45.529857, 0.0 ] } },
{ "type": "Feature", "properties": { "COD": "18", "Convenzioni_Nominativo": null, "Convenzioni_Data_Conv": null, "Convenzioni_Localita": null, "Convenzioni_Oggetto": "SOPPRESSA", "Convenzioni_Rif_Note": null }, "geometry": { "type": "Point", "coordinates": [ 10.282827, 45.5198, 0.0 ] } },
{ "type": "Feature", "properties": { "COD": "693", "Convenzioni_Nominativo": "PROGETTO CASA S.R.L. - S.I.B. S.R.L. - ALTRI", "Convenzioni_Data_Conv": "1994\/03\/07", "Convenzioni_Localita": "CAIONVICO", "Convenzioni_Oggetto": "OPERE DI URBANIZZAZIONE - CESSIONE DI AREE - SERVITU' DI USO PUBBLICO", "Convenzioni_Rif_Note": "N.C.T.R. FGG. 195-196  8^ CIRC." }, "geometry": { "type": "Point", "coordinates": [ 10.289721, 45.523073, 0.0 ] } },
{ "type": "Feature", "properties": { "COD": "670", "Convenzioni_Nominativo": "ARDESI-GARFIN S.P.A.-MINERVA-TORNADO S.R.L.-ALTRI", "Convenzioni_Data_Conv": "1990\/05\/03", "Convenzioni_Localita": "VIA GOLDONI", "Convenzioni_Oggetto": "STRADE - AREE S.P.", "Convenzioni_Rif_Note": "N.C.T.R. FGG. 156-196  8^ CIRC." }, "geometry": { "type": "Point", "coordinates": [ 10.291784, 45.525282, 0.0 ] } },
{ "type": "Feature", "properties": { "COD": "655", "Convenzioni_Nominativo": "SOC. INVESTIMENTI VENETI", "Convenzioni_Data_Conv": "1988\/06\/15", "Convenzioni_Localita": "VIALE VENEZIA", "Convenzioni_Oggetto": "VERDE PUBBLICO", "Convenzioni_Rif_Note": "N.C.T.R. FG. 151  8^ CIRC." }, "geometry": { "type": "Point", "coordinates": [ 10.247974, 45.531337, 0.0 ] } },
{ "type": "Feature", "properties": { "COD": "822", "Convenzioni_Nominativo": "BERTOLOTTI E DAMIANI S.P.A.", "Convenzioni_Data_Conv": "2008\/06\/23", "Convenzioni_Localita": "VIALE SANT'EUFEMIA", "Convenzioni_Oggetto": "MODIFICHE ALLA CONVENZIONE 770", "Convenzioni_Rif_Note": "N.C.T.R. FG. 190  7^ CIRCOSCRIZIONE" }, "geometry": { "type": "Point", "coordinates": [ 10.266989, 45.523872, 0.0 ] } },
{ "type": "Feature", "properties": { "COD": "402", "Convenzioni_Nominativo": "COOP. LA FAMIGLIA", "Convenzioni_Data_Conv": "1968\/11\/26", "Convenzioni_Localita": "VIA VAL CAROBBIO - VIALE S.EUFEMIA", "Convenzioni_Oggetto": "VINCOLO AREA NON AEDIFICANDI", "Convenzioni_Rif_Note": "N.C.T.R. FG. 191  8^ CIRC." }, "geometry": { "type": "Point", "coordinates": [ 10.274162, 45.526954, 0.0 ] } },
{ "type": "Feature", "properties": { "COD": "820", "Convenzioni_Nominativo": "FRECCIA ROSSA SHOPPING CENTRE S.R.L.", "Convenzioni_Data_Conv": "2008\/03\/31", "Convenzioni_Localita": "COMPARTO MILANO", "Convenzioni_Oggetto": "OPERE DI URBANIZZAZIONE (ATTO INTEGRATIVO CONVENZIONE 792)", "Convenzioni_Rif_Note": "N.C.T.R. FG. 116  9^ CIRCOSCRIZIONE" }, "geometry": { "type": "Point", "coordinates": [ 10.210145, 45.535818, 0.0 ] } },
{ "type": "Feature", "properties": { "COD": "455", "Convenzioni_Nominativo": "SOC. PORCELLAGA S.P.A.", "Convenzioni_Data_Conv": "1971\/06\/22", "Convenzioni_Localita": "VIA PORCELLAGA - VICOLO DELLA COSTANZA", "Convenzioni_Oggetto": "SERVITU' PASSAGGIO PORTICI - STRADA (SUPERATA DA SERVITU' N.119)", "Convenzioni_Rif_Note": "N.C.T.R. FG. 120  9^ CIRC." }, "geometry": { "type": "Point", "coordinates": [ 10.217926, 45.538465, 0.0 ] } },
{ "type": "Feature", "properties": { "COD": "652", "Convenzioni_Nominativo": "SOC. VECCHIO GAMBERO - SOC. CENTRO STORICO", "Convenzioni_Data_Conv": "1988\/03\/11", "Convenzioni_Localita": "TRAVERSA DEL GAMBERO", "Convenzioni_Oggetto": "STRADE - SPAZI PUBBLICI   (10.10.91 CONSEGNATA ALLA DOTT.SSA NATOLI)", "Convenzioni_Rif_Note": "N.C.T.R. FG. 137  9^ CIRC." }, "geometry": { "type": "Point", "coordinates": [ 10.219812, 45.536583, 0.0 ] } },
{ "type": "Feature", "properties": { "COD": "866", "Convenzioni_Nominativo": "S.P.A. IMMOBILIARE - FIERA DI BRESCIA", "Convenzioni_Data_Conv": "2011\/02\/25", "Convenzioni_Localita": "VIA ORZINUOVI - TANG. OVEST - TANG. SUD - VIA GHISLANDI - VIA CAPRERA", "Convenzioni_Oggetto": "MODIFICA CONVENZIONE 805", "Convenzioni_Rif_Note": "N.C.T.R. FGG. 157, 158, 159, 197, 198, 227 E 228 5^ CIRC." }, "geometry": { "type": "Point", "coordinates": [ 10.172437, 45.526364, 0.0 ] } },
{ "type": "Feature", "properties": { "COD": "919", "Convenzioni_Nominativo": "S.P.A. IMMOBILIARE - FIERA DI BRESCIA", "Convenzioni_Data_Conv": "2018\/05\/03", "Convenzioni_Localita": "TANGENZIALE OVEST", "Convenzioni_Oggetto": "MODIFICA CONVENZIONE URBANISTICA (906) RELATIVA AL COMPLETAMENTO DEL QUARTIERE ESPOSITIVO DI BRESCIA", "Convenzioni_Rif_Note": "NCT FG. 159 5^ CIRCOSCRIZIONE" }, "geometry": { "type": "Point", "coordinates": [ 10.172655, 45.527892, 0.0 ] } },
{ "type": "Feature", "properties": { "COD": "805", "Convenzioni_Nominativo": "S.P.A. IMMOBILIARE - FIERA DI BRESCIA", "Convenzioni_Data_Conv": "2005\/08\/01", "Convenzioni_Localita": "VIA ORZINUOVI - TANG. OVEST - TANG. SUD - VIA GHISLANDI - VIA CAPRERA", "Convenzioni_Oggetto": "OPERE DI URBANIZZAZIONE - CESSIONE DI AREE - SERVITU' DI USO PUBBLICO", "Convenzioni_Rif_Note": "N.C.T.R. FGG. 157, 158, 159, 197, 198, 227 E 228 5^ CIRC." }, "geometry": { "type": "Point", "coordinates": [ 10.172722, 45.525286, 0.0 ] } },
{ "type": "Feature", "properties": { "COD": "571", "Convenzioni_Nominativo": "NAVARINI", "Convenzioni_Data_Conv": "1975\/02\/28", "Convenzioni_Localita": "PENDOLINA", "Convenzioni_Oggetto": "STRADE - CAMPI DI CALCIO E RUGBY", "Convenzioni_Rif_Note": "N.C.T.R. FG. 14  3^ CIRC." }, "geometry": { "type": "Point", "coordinates": [ 10.205047165152836, 45.569885437759865, 0.0 ] } },
{ "type": "Feature", "properties": { "COD": "272", "Convenzioni_Nominativo": "MINELLI FAUSTO", "Convenzioni_Data_Conv": "1965\/12\/21", "Convenzioni_Localita": "VIA DEL PLUS", "Convenzioni_Oggetto": "STRADE, PARCHEGGI E VERDE PUBBLICO", "Convenzioni_Rif_Note": "N.C.T.R. FG. 34  2^ CIRC." }, "geometry": { "type": "Point", "coordinates": [ 10.236236561555183, 45.563649602768223, 0.0 ] } },
{ "type": "Feature", "properties": { "COD": "272", "Convenzioni_Nominativo": "MINELLI FAUSTO", "Convenzioni_Data_Conv": "1965\/12\/21", "Convenzioni_Localita": "VIA DEL PLUS", "Convenzioni_Oggetto": "STRADE, PARCHEGGI E VERDE PUBBLICO", "Convenzioni_Rif_Note": "N.C.T.R. FG. 34  2^ CIRC." }, "geometry": { "type": "Point", "coordinates": [ 10.237225307245472, 45.565078433090122, 0.0 ] } },
{ "type": "Feature", "properties": { "COD": "5", "Convenzioni_Nominativo": "BONETTI FR.LLI", "Convenzioni_Data_Conv": "1961\/05\/02", "Convenzioni_Localita": "VIA TOSONI", "Convenzioni_Oggetto": "STRADE - VERDE - SERVITU' VEDUTA PASSAGGIO", "Convenzioni_Rif_Note": "N.C.T.R. FG. 70 2^ CIRC." }, "geometry": { "type": "Point", "coordinates": [ 10.228110316773162, 45.556407409078986, 0.0 ] } },
{ "type": "Feature", "properties": { "COD": "381", "Convenzioni_Nominativo": "LOCATELLI FR.LLI", "Convenzioni_Data_Conv": "1968\/08\/28", "Convenzioni_Localita": "VIA VIOLINO DI SOPRA", "Convenzioni_Oggetto": "VINCOLO PROVVISORIETA' TORRE METALLICA", "Convenzioni_Rif_Note": "N.C.T.R. FG. 105  3^ CIRC." }, "geometry": { "type": "Point", "coordinates": [ 10.163207962581966, 45.537339309443169, 0.0 ] } },
{ "type": "Feature", "properties": { "COD": "40", "Convenzioni_Nominativo": "RAINERI RENATO", "Convenzioni_Data_Conv": "1962\/08\/01", "Convenzioni_Localita": "VIA S.ZENO", "Convenzioni_Oggetto": "SERVITU' D'USO PUBBLICO SU PORTICI E STRADE", "Convenzioni_Rif_Note": "N.C.T.R. FG. 172  7^ CIRC." }, "geometry": { "type": "Point", "coordinates": [ 10.220827553229624, 45.524220332226768, 0.0 ] } },
{ "type": "Feature", "properties": { "COD": "679", "Convenzioni_Nominativo": "GEMMA 73-S.DOMENICO S.R.L.-ZABELLO S.R.L.-ALTRI", "Convenzioni_Data_Conv": "1991\/06\/26", "Convenzioni_Localita": "VIA LAMARMORA - VIA S.ZENO", "Convenzioni_Oggetto": "OPERE DI URBANIZZAZIONE - CESSIONE DI AREE", "Convenzioni_Rif_Note": "N.C.T.R. FGG. 170-173  6^ CIRC." }, "geometry": { "type": "Point", "coordinates": [ 10.214507133994273, 45.523538779855713, 0.0 ] } },
{ "type": "Feature", "properties": { "COD": "654", "Convenzioni_Nominativo": "SOC. IMMOBILIARE S.POLO 80", "Convenzioni_Data_Conv": "1988\/05\/05", "Convenzioni_Localita": "VIA MANTOVA - COMPARTO 11 S.POLO ZONA A\/9", "Convenzioni_Oggetto": "STRADE - PARCHEGGI - VERDE PUBBLICO", "Convenzioni_Rif_Note": "N.C.T.R. FG. 180  7^ CIRC." }, "geometry": { "type": "Point", "coordinates": [ 10.239915610706001, 45.525889700427612, 0.0 ] } },
{ "type": "Feature", "properties": { "COD": "556", "Convenzioni_Nominativo": "DUSI - DOREGATTI", "Convenzioni_Data_Conv": "1974\/07\/09", "Convenzioni_Localita": "VIA PONTE - S.POLO", "Convenzioni_Oggetto": "VINCOLO NON AEDIFICANDI", "Convenzioni_Rif_Note": "N.C.T.R. FG. 264  7^ CIRC." }, "geometry": { "type": "Point", "coordinates": [ 10.25439961369532, 45.496484274449216, 0.0 ] } }
]
}
