{
"type": "FeatureCollection",
"name": "CONV_URB_P",
"crs": { "type": "name", "properties": { "name": "urn:ogc:def:crs:OGC:1.3:CRS84" } },
"features": [
{ "type": "Feature", "properties": { "COD": "379", "Nominativo": "BRESCIANI CONCERIA", "Data_Conv": "1968\/07\/26", "Localita": "VIA CAPRETTI", "Oggetto": "STRADE E VINCOLO NON AEDIFICANDI", "Rif_Note": "N.C.T.R. FG. 2 1^ CIRC.", "Note": null }, "geometry": { "type": "Point", "coordinates": [ 10.223079, 45.585392, 0.0 ] } },
{ "type": "Feature", "properties": { "COD": "764", "Nominativo": "PATERLINI E TONOLINI S.P.A.", "Data_Conv": "1998\/03\/18", "Localita": "VIA FERRINI", "Oggetto": "OPERE DI URBANIZZAZIONE, CESSIONE DI AREE E SERVITU' DI USO PUBBLICO", "Rif_Note": "N.C.T.R. FG. 31  1^ CIRC.", "Note": null }, "geometry": { "type": "Point", "coordinates": [ 10.227386, 45.56573, 0.0 ] } },
{ "type": "Feature", "properties": { "COD": "765", "Nominativo": "ZANOTTI SANTO S.R.L.", "Data_Conv": "1995\/05\/08", "Localita": "VIA FERRINI", "Oggetto": "OPERE DI URBANIZZAZIONE, CESSIONE DI AREE, SERVITU' DI USO PUBBLICO", "Rif_Note": "N.C.T.R. FG. 31  1^ CIRC.", "Note": null }, "geometry": { "type": "Point", "coordinates": [ 10.227932, 45.565927, 0.0 ] } },
{ "type": "Feature", "properties": { "COD": "554", "Nominativo": "SEICASE S.A.S. DI L.GROSSI", "Data_Conv": "1974\/07\/23", "Localita": "VIA RAZZICHE", "Oggetto": "STRADE - PARCHEGGI - VERDE PUBBLICO - COPERTURA FOSSO", "Rif_Note": "N.C.T.R. FGG. 29-41-43  1^ CIRC.", "Note": null }, "geometry": { "type": "Point", "coordinates": [ 10.213295, 45.562589, 0.0 ] } },
{ "type": "Feature", "properties": { "COD": "480", "Nominativo": "LODA", "Data_Conv": "1972\/04\/11", "Localita": "VIA STRETTA", "Oggetto": "VINCOLO PROVVISORIETA' RAMPA E PASSO CARRAIO", "Rif_Note": "N.C.T.R. FG. 43  1^ CIRC.", "Note": null }, "geometry": { "type": "Point", "coordinates": [ 10.219675, 45.560273, 0.0 ] } },
{ "type": "Feature", "properties": { "COD": "28", "Nominativo": "ABENI - PICCINI - SARASINI", "Data_Conv": "1962\/06\/05", "Localita": "VIA VENETO", "Oggetto": "STRADE", "Rif_Note": "N.C.T.R. FG. 68  1^ CIRC.", "Note": null }, "geometry": { "type": "Point", "coordinates": [ 10.219191, 45.556416, 0.0 ] } },
{ "type": "Feature", "properties": { "COD": "219", "Nominativo": "DAMIANI DARIO E VENTURELLI FRANCESCO", "Data_Conv": "1964\/11\/16", "Localita": "VIA VITTORIO VENETO", "Oggetto": "STRADE", "Rif_Note": "N.C.T.R. FG. 68  1^ CIRC.", "Note": null }, "geometry": { "type": "Point", "coordinates": [ 10.218068, 45.55575, 0.0 ] } },
{ "type": "Feature", "properties": { "COD": "137", "Nominativo": "LEGNAMI PASOTTI", "Data_Conv": "1963\/12\/02", "Localita": "VIA VALLE - VIA BAGNI", "Oggetto": "STRADE", "Rif_Note": "N.C.T.R. FG. 68  1^ CIRC.", "Note": null }, "geometry": { "type": "Point", "coordinates": [ 10.219478, 45.55352, 0.0 ] } },
{ "type": "Feature", "properties": { "COD": "469", "Nominativo": "BERNARDELLI", "Data_Conv": "1971\/10\/05", "Localita": "VIA DAMIANO CHIESA", "Oggetto": "STRADE E VERDE PUBBLICO", "Rif_Note": "N.C.T.R. FG. 69  1^ CIRC.", "Note": null }, "geometry": { "type": "Point", "coordinates": [ 10.222909, 45.553914, 0.0 ] } },
{ "type": "Feature", "properties": { "COD": "673", "Nominativo": "IMMOBILIARE PANORAMA S.R.L.", "Data_Conv": "1990\/05\/04", "Localita": "VIA CIPANI - VIA TRENTO", "Oggetto": "STRADE - ONERI DI URBANIZZAZIONE", "Rif_Note": "N.C.T.R. FG. 69  1^ CIRC.", "Note": null }, "geometry": { "type": "Point", "coordinates": [ 10.225446, 45.553644, 0.0 ] } },
{ "type": "Feature", "properties": { "COD": "249", "Nominativo": "SOARDI JOSE'", "Data_Conv": "1965\/07\/27", "Localita": "VIA AMBARAGA", "Oggetto": "STRADE", "Rif_Note": "N.C.T.R. FG. 22  2^ CIRC.", "Note": null }, "geometry": { "type": "Point", "coordinates": [ 10.240888, 45.567789, 0.0 ] } },
{ "type": "Feature", "properties": { "COD": "256", "Nominativo": "TOSI MARIA IN POLOTTI", "Data_Conv": "1992\/10\/18", "Localita": "VIA PUSTERLA", "Oggetto": "STRADE E SERVITU' DI PASSAGGIO PORTICI", "Rif_Note": "N.C.T.R. FG. 92  2^ CIRC.", "Note": null }, "geometry": { "type": "Point", "coordinates": [ 10.224453, 45.545239, 0.0 ] } },
{ "type": "Feature", "properties": { "COD": "206", "Nominativo": "FEDELE PIETRO", "Data_Conv": "1964\/10\/02", "Localita": "VIA COLLEFIORITO", "Oggetto": "STRADE", "Rif_Note": "N.C.T.R. FG. 96  2^ CIRC.", "Note": null }, "geometry": { "type": "Point", "coordinates": [ 10.232223, 45.544861, 0.0 ] } },
{ "type": "Feature", "properties": { "COD": "363", "Nominativo": "RINCHETTI - TASSI", "Data_Conv": "1968\/05\/14", "Localita": "VIA UGOLINI", "Oggetto": "SERVITU' NON SOPRAELEVAZIONE FABBRICATO", "Rif_Note": "N.C.T.R. FG. 61  3^ CIRC.", "Note": null }, "geometry": { "type": "Point", "coordinates": [ 10.190432, 45.556813, 0.0 ] } },
{ "type": "Feature", "properties": { "COD": "353", "Nominativo": "RINCHETTI - TASSI - TISI - PERONI", "Data_Conv": "1967\/11\/21", "Localita": "VIA UGOLINI", "Oggetto": "VINCOLO NON SOPRAELEVAZIONE FABBRICATO", "Rif_Note": "N.C.T.R. FG. 61  3^ CIRC.", "Note": null }, "geometry": { "type": "Point", "coordinates": [ 10.190188, 45.556749, 0.0 ] } },
{ "type": "Feature", "properties": { "COD": "371", "Nominativo": "FAMIGLIA BRESCIANA", "Data_Conv": "1968\/07\/12", "Localita": "VIA VIOLINO DI SOPRA", "Oggetto": "SERVITU' PASSAGGIO PORTICI", "Rif_Note": "N.C.T.R. FG. 105  3^ CIRC.", "Note": null }, "geometry": { "type": "Point", "coordinates": [ 10.169874, 45.542328, 0.0 ] } },
{ "type": "Feature", "properties": { "COD": "702", "Nominativo": "COOPERATIVA LA FAMIGLIA NUOVO VIOLINO", "Data_Conv": "1994\/10\/04", "Localita": "Q.RE VIOLINO", "Oggetto": "OPERE DI URBANIZZAZIONE - CESSIONE DI AREE", "Rif_Note": "N.C.T.R. FG. 105  3^ CIRC.", "Note": null }, "geometry": { "type": "Point", "coordinates": [ 10.165038, 45.543702, 0.0 ] } },
{ "type": "Feature", "properties": { "COD": "709", "Nominativo": "ELECTA S.R.L.", "Data_Conv": "1996\/01\/12", "Localita": "VIA MILANO - TANGENZIALE OVEST", "Oggetto": "OPERE DI URBANIZZAZIONE - CESSIONE DI AREE", "Rif_Note": "N.C.T.R. FG. 80  4^ CIRC.", "Note": null }, "geometry": { "type": "Point", "coordinates": [ 10.186617, 45.548023, 0.0 ] } },
{ "type": "Feature", "properties": { "COD": "230", "Nominativo": "CANCARINI GIOVANNI", "Data_Conv": "1964\/11\/18", "Localita": "VIA GERRE", "Oggetto": "STRADE - VERDE PUBBLICO - AREA SPORTIVA", "Rif_Note": "N.C.T.R. FG. 80  4^ CIRC.", "Note": null }, "geometry": { "type": "Point", "coordinates": [ 10.191107, 45.548383, 0.0 ] } },
{ "type": "Feature", "properties": { "COD": "825", "Nominativo": "IVECO S.P.A.", "Data_Conv": "2008\/07\/03", "Localita": "VIA PETRARCA", "Oggetto": "ATTO INTEGRATIVO DELLA CONVENZIONE URBANISTICA 609", "Rif_Note": "N.C.T.R. FG. 81  4^ CIRCOSCRIZIONE", "Note": null }, "geometry": { "type": "Point", "coordinates": [ 10.197386, 45.55187, 0.0 ] } },
{ "type": "Feature", "properties": { "COD": "8", "Nominativo": "PEZZOTTI BARBARA E STEFINI MARIO", "Data_Conv": "1961\/07\/14", "Localita": "VIA CARDUCCI - VIA STOPPANI - VIA MANARA", "Oggetto": "STRADE - AREA D'INTERESSE PUBBLICO", "Rif_Note": "N.C.T.R. FG. 83 4^ CIRC.", "Note": null }, "geometry": { "type": "Point", "coordinates": [ 10.19715, 45.547092, 0.0 ] } },
{ "type": "Feature", "properties": { "COD": "151", "Nominativo": "TOGNI FR.LLI E FILIPPINI EGIDIO", "Data_Conv": "1963\/12\/19", "Localita": "VIA PASCOLI", "Oggetto": "SERVITU' NON AEDIFICANDI", "Rif_Note": "N.C.T.R. FG. 83  4^ CIRC.", "Note": null }, "geometry": { "type": "Point", "coordinates": [ 10.20094, 45.546377, 0.0 ] } },
{ "type": "Feature", "properties": { "COD": "730", "Nominativo": "PELLIZZARI S.R.L.", "Data_Conv": "1998\/06\/23", "Localita": "VIA CARDUCCI - VIA ZAMBONI", "Oggetto": "CESSIONI DI AREE ED OPERE DI URBANIZZAZIONE - SERVITU' DI USO PUBBLICO", "Rif_Note": "N.C.T.R. FG. 85  4^ CIRC.", "Note": null }, "geometry": { "type": "Point", "coordinates": [ 10.204274, 45.547418, 0.0 ] } },
{ "type": "Feature", "properties": { "COD": "721", "Nominativo": "IMPRESA ARDESI ENRICO S.P.A.", "Data_Conv": "1997\/10\/20", "Localita": "VIA GIOSUE' CARDUCCI - VIA GIAN MARIA MAZZUCCHELLI", "Oggetto": "CESSIONE DI AREE ED OPERE DI URBANIZZAZIONE - SERVITU' DI USO PUBBLICO", "Rif_Note": "N.C.T.R. FG. 85  4^ CIRCOSCRIZIONE", "Note": null }, "geometry": { "type": "Point", "coordinates": [ 10.206528, 45.546795, 0.0 ] } },
{ "type": "Feature", "properties": { "COD": "821", "Nominativo": "OTO MELARA S.P.A.", "Data_Conv": "2003\/05\/14", "Localita": "VIA LUNGA", "Oggetto": "OPERE DI URBANIZZAZIONE - CESSIONE DI AREE", "Rif_Note": "N.C.T.R. FG. 133  4^ CIRCOSCRIZIONE", "Note": null }, "geometry": { "type": "Point", "coordinates": [ 10.188285, 45.537243, 0.0 ] } },
{ "type": "Feature", "properties": { "COD": "780", "Nominativo": "CO.R.C.AB. LOMBARDIA S.C.R.L.", "Data_Conv": "1997\/03\/04", "Localita": "VIA ROSE DI SOTTO - VIA DELLA PRESOLANA", "Oggetto": "OPERE DI URBANIZZAZIONE - CESSIONE DI AREE - SERVITU' DI USO PUBBLICO", "Rif_Note": "N.C.T.R. FG. 135  4^ CIRCOSCRIZIONE", "Note": null }, "geometry": { "type": "Point", "coordinates": [ 10.198072, 45.53443, 0.0 ] } },
{ "type": "Feature", "properties": { "COD": "775", "Nominativo": "FIN-ECO LEASING S.P.A.", "Data_Conv": "2005\/01\/17", "Localita": "VIA ORZINUOVI", "Oggetto": "CESSIONE D'IMMOBILI E SERVITU' DI USO PUBBLICO", "Rif_Note": "N.C.T.R. FG. 158  5^ CIRCOSCRIZIONE", "Note": null }, "geometry": { "type": "Point", "coordinates": [ 10.177648, 45.529505, 0.0 ] } },
{ "type": "Feature", "properties": { "COD": "778", "Nominativo": "S.P.A. IMMOBILIARE FIERA DI BRESCIA", "Data_Conv": "2001\/05\/25", "Localita": "VIA ORZINUOVI - VIA CAPRERA", "Oggetto": "OPERE DI URBANIZZAZIONE - CESSIONE DI AREE - SERVITU' DI USO PUBBLICO", "Rif_Note": "N.C.T.R. FGG. 157 E 158  5^ CIRCOSCRIZIONE", "Note": null }, "geometry": { "type": "Point", "coordinates": [ 10.173898, 45.531015, 0.0 ] } },
{ "type": "Feature", "properties": { "COD": "197", "Nominativo": "BREMBATI ANGELO", "Data_Conv": "1964\/07\/23", "Localita": "VIA NOCE", "Oggetto": "STRADE", "Rif_Note": "N.C.T.R. FG. 199  5^ CIRC.", "Note": null }, "geometry": { "type": "Point", "coordinates": [ 10.182938, 45.525402, 0.0 ] } },
{ "type": "Feature", "properties": { "COD": "711", "Nominativo": "INTERIM INTERVENTI IMMOBILIARI E MOBILIARI S.P.A.", "Data_Conv": "1996\/03\/04", "Localita": "CHIESANUOVA", "Oggetto": "OPERE DI URBANIZZAZIONE - CESSIONE DI AREE - SERVITU' D'USO PUBBLICO", "Rif_Note": "N.C.T.R. FG. 200  5^ CIRC.", "Note": null }, "geometry": { "type": "Point", "coordinates": [ 10.185857, 45.521769, 0.0 ] } },
{ "type": "Feature", "properties": { "COD": "668", "Nominativo": "ZUBANI - CORNALI - ZIZIOLI - MAITINI - ALTRI", "Data_Conv": "1989\/06\/26", "Localita": "VIA GENOVA - VIA TORINO - VIA PARENZO", "Oggetto": "AREE S.P. - STRADE", "Rif_Note": "N.C.T.R. FGG. 162-200-201  5^ CIRC.", "Note": null }, "geometry": { "type": "Point", "coordinates": [ 10.187888, 45.523549, 0.0 ] } },
{ "type": "Feature", "properties": { "COD": "800", "Nominativo": "BETTONI S.P.A.", "Data_Conv": "2006\/11\/28", "Localita": "VIA GRANDI - VIA ROSELLI - VIA MAESTRI", "Oggetto": "OPERE DI URBANIZZAZIONE - CESSIONE DI AREE - SERVITU' DI USO PUBBLICO", "Rif_Note": "N.C.T.R. FGG. 227, 244 E 245 5^ CIRCOSCRIZIONE", "Note": null }, "geometry": { "type": "Point", "coordinates": [ 10.164473, 45.514603, 0.0 ] } },
{ "type": "Feature", "properties": { "COD": "726", "Nominativo": "C.I.B. S.R.L. ED ALTRI", "Data_Conv": "1998\/03\/27", "Localita": "ZONA INDUSTRIALE - LOCALITA' GIRELLI", "Oggetto": "CESSIONE DI AREE ED OPERE DI URBANIZZAZIONE - SERVITU' DI USO PUBBLICO", "Rif_Note": "N.C.T.R. FG. 226  5^ CIRC.", "Note": null }, "geometry": { "type": "Point", "coordinates": [ 10.158676, 45.521745, 0.0 ] } },
{ "type": "Feature", "properties": { "COD": "725", "Nominativo": "C.I.B. 95 S.R.L.", "Data_Conv": "1998\/01\/19", "Localita": "ZONA INDUSTRIALE - LOCALITA' GIRELLI", "Oggetto": "CESSIONE DI AREE ED OPERE DI URBANIZZAZIONE - SERVITU' DI USO PUBBLICO", "Rif_Note": "N.C.T.R. FG. 226  5^ CIRC.", "Note": null }, "geometry": { "type": "Point", "coordinates": [ 10.158369, 45.519613, 0.0 ] } },
{ "type": "Feature", "properties": { "COD": "816", "Nominativo": "ARCE GESTIONI S.P.A.", "Data_Conv": "2007\/10\/09", "Localita": "VIA ABBIATI", "Oggetto": "OPERE DI URBANIZZAZIONE - CESSIONE DI AREE", "Rif_Note": "N.C.T.R. FG. 245  5^ CIRCOSCRIZIONE", "Note": null }, "geometry": { "type": "Point", "coordinates": [ 10.166604, 45.510682, 0.0 ] } },
{ "type": "Feature", "properties": { "COD": "695", "Nominativo": "CEIB INVEST S.R.L.", "Data_Conv": "1994\/05\/10", "Localita": "VIA VERZIANO", "Oggetto": "OPERE DI URBANIZZ. - CESSIONE DI AREE - SDEMANIALIZZAZIONE DI STRADA", "Rif_Note": "N.C.T.R. FGG. 249-251-252  5^ CIRC.", "Note": null }, "geometry": { "type": "Point", "coordinates": [ 10.172651, 45.501475, 0.0 ] } },
{ "type": "Feature", "properties": { "COD": "514", "Nominativo": "S.A.S. ROMANINO", "Data_Conv": "1971\/07\/09", "Localita": "VIA L.GAMBARA", "Oggetto": "STRADE - RAMPA - VINCOLO ALTEZZA FABBRICATO", "Rif_Note": "N.C.T.R. FG. 146  6^ CIRC.", "Note": null }, "geometry": { "type": "Point", "coordinates": [ 10.215241, 45.532549, 0.0 ] } },
{ "type": "Feature", "properties": { "COD": "77", "Nominativo": "CANTU' EMENEGARDI", "Data_Conv": "1962\/12\/13", "Localita": "VIA CORSICA", "Oggetto": "VINCOLO E VERDE PUBBLICO", "Rif_Note": "N.C.T.R. FG. 166  6^ CIRC.", "Note": null }, "geometry": { "type": "Point", "coordinates": [ 10.207217, 45.529071, 0.0 ] } },
{ "type": "Feature", "properties": { "COD": "562", "Nominativo": "SCAGLIORI E GROFFETTI", "Data_Conv": "1975\/03\/06", "Localita": "VIA CORSICA", "Oggetto": "VINCOLO PORTICO E GIARDINO CONDOMINIALI", "Rif_Note": "N.C.T.R. FG. 166  6^ CIRC.", "Note": null }, "geometry": { "type": "Point", "coordinates": [ 10.208322, 45.529998, 0.0 ] } },
{ "type": "Feature", "properties": { "COD": "717", "Nominativo": "GEODRILL S.R.L.", "Data_Conv": "1996\/10\/11", "Localita": "VIA CORSICA - VIA ZARA", "Oggetto": "OPERE DI URBANIZZAZIONE - CESSIONE DI AREE", "Rif_Note": "N.C.T.R. FG. 166   6^ CIRC.", "Note": null }, "geometry": { "type": "Point", "coordinates": [ 10.209203, 45.53127, 0.0 ] } },
{ "type": "Feature", "properties": { "COD": "700", "Nominativo": "IMMOBILIARE ALUFOND S.P.A. (EX JOINT S.R.L.)", "Data_Conv": "1993\/12\/20", "Localita": "VIA PRIVATA DE VITALIS", "Oggetto": "OPERE DI URBANIZZAZIONE - CESSIONE DI AREE", "Rif_Note": "N.C.T.R. FG. 168  6^ CIRC.", "Note": null }, "geometry": { "type": "Point", "coordinates": [ 10.211928, 45.529655, 0.0 ] } },
{ "type": "Feature", "properties": { "COD": "762", "Nominativo": "MALTA S.P.A., FINPRO PALACE S.R.L. ED ALTRI", "Data_Conv": "1991\/07\/12", "Localita": "VIA SARDEGNA, VIA MALTA, VIA CRETA E VIA CORFU'.", "Oggetto": "OPERE DI URBANIZZAZIONE E CESSIONE DI AREE", "Rif_Note": "N.C.T.R. FGG. 168 E 169  6^ CIRCOSCRIZIONE", "Note": null }, "geometry": { "type": "Point", "coordinates": [ 10.212778, 45.530003, 0.0 ] } },
{ "type": "Feature", "properties": { "COD": "89", "Nominativo": "ANELLI GIORGIO E SECCHI ADRIANO", "Data_Conv": "1962\/10\/26", "Localita": "VIA PRIVATA DE VITALIS", "Oggetto": "STRADE E VERDE PUBBLICO", "Rif_Note": "N.C.T.R. FG. 168  6^ CIRC.", "Note": null }, "geometry": { "type": "Point", "coordinates": [ 10.210733, 45.528849, 0.0 ] } },
{ "type": "Feature", "properties": { "COD": "89", "Nominativo": "ANELLI GIORGIO E SECCHI ADRIANO", "Data_Conv": "1962\/10\/26", "Localita": "VIA PRIVATA DE VITALIS", "Oggetto": "STRADE E VERDE PUBBLICO", "Rif_Note": "N.C.T.R. FG. 168  6^ CIRC.", "Note": null }, "geometry": { "type": "Point", "coordinates": [ 10.210374, 45.528907, 0.0 ] } },
{ "type": "Feature", "properties": { "COD": "642", "Nominativo": "SOC. GEMMA 73", "Data_Conv": "1985\/05\/23", "Localita": "BRESCIA DUE", "Oggetto": "CAMBIO DI DESTINAZIONE DI AREA COMPRESA NEL PIANO PARTICOLAREGG. BS 2", "Rif_Note": "N.C.T.R. FG. 169  6^ CIRC.", "Note": null }, "geometry": { "type": "Point", "coordinates": [ 10.21171, 45.526463, 0.0 ] } },
{ "type": "Feature", "properties": { "COD": "559", "Nominativo": "S.P.A. MALTA", "Data_Conv": "1973\/03\/29", "Localita": "CAVALCAVIA KENNEDY", "Oggetto": "REGOLAMENTAZIONE COMPARTI - CONTRIBUTO URBANIZZAZIONE", "Rif_Note": "N.C.T.R. FG. 169  6^ CIRC.", "Note": null }, "geometry": { "type": "Point", "coordinates": [ 10.213751, 45.526842, 0.0 ] } },
{ "type": "Feature", "properties": { "COD": "762", "Nominativo": "MALTA S.P.A., FINPRO PALACE S.R.L. ED ALTRI", "Data_Conv": "1991\/07\/12", "Localita": "VIA SARDEGNA, VIA MALTA, VIA CRETA E VIA CORFU'.", "Oggetto": "OPERE DI URBANIZZAZIONE E CESSIONE DI AREE", "Rif_Note": "N.C.T.R. FGG. 168 E 169  6^ CIRCOSCRIZIONE", "Note": null }, "geometry": { "type": "Point", "coordinates": [ 10.21501309, 45.52894325, 0.0 ] } },
{ "type": "Feature", "properties": { "COD": "679", "Nominativo": "GEMMA 73-S.DOMENICO S.R.L.-ZABELLO S.R.L.-ALTRI", "Data_Conv": "1991\/06\/26", "Localita": "VIA LAMARMORA - VIA S.ZENO", "Oggetto": "OPERE DI URBANIZZAZIONE - CESSIONE DI AREE", "Rif_Note": "N.C.T.R. FGG. 170-173  6^ CIRC.", "Note": null }, "geometry": { "type": "Point", "coordinates": [ 10.212786, 45.52395, 0.0 ] } },
{ "type": "Feature", "properties": { "COD": "570", "Nominativo": "S.P.A. LA PRIMAVERA", "Data_Conv": "1975\/07\/07", "Localita": "VIA CIPRO", "Oggetto": "STRADE - REGOLAMENTAZIONE COMPARTI", "Rif_Note": "N.C.T.R. FG. 170  6^ CIRC.", "Note": null }, "geometry": { "type": "Point", "coordinates": [ 10.211438, 45.524293, 0.0 ] } },
{ "type": "Feature", "properties": { "COD": "647", "Nominativo": "SOC. BRESCIANA IMMOBILIARE - SOC. MALTA - ALTRI", "Data_Conv": "1986\/10\/09", "Localita": "VIA MALTA - VIA CEFALONIA", "Oggetto": "STRADE - PARCHEGGI - VERDE PUBBLICO", "Rif_Note": "N.C.T.R. FG. 171  6^ CIRC.", "Note": null }, "geometry": { "type": "Point", "coordinates": [ 10.216077, 45.523529, 0.0 ] } },
{ "type": "Feature", "properties": { "COD": "679", "Nominativo": "GEMMA 73-S.DOMENICO S.R.L.-ZABELLO S.R.L.-ALTRI", "Data_Conv": "1991\/06\/26", "Localita": "VIA LAMARMORA - VIA S.ZENO", "Oggetto": "OPERE DI URBANIZZAZIONE - CESSIONE DI AREE", "Rif_Note": "N.C.T.R. FGG. 170-173  6^ CIRC.", "Note": null }, "geometry": { "type": "Point", "coordinates": [ 10.218257, 45.5224, 0.0 ] } },
{ "type": "Feature", "properties": { "COD": "679", "Nominativo": "GEMMA 73-S.DOMENICO S.R.L.-ZABELLO S.R.L.-ALTRI", "Data_Conv": "1991\/06\/26", "Localita": "VIA LAMARMORA - VIA S.ZENO", "Oggetto": "OPERE DI URBANIZZAZIONE - CESSIONE DI AREE", "Rif_Note": "N.C.T.R. FGG. 170-173  6^ CIRC.", "Note": null }, "geometry": { "type": "Point", "coordinates": [ 10.213413, 45.521189, 0.0 ] } },
{ "type": "Feature", "properties": { "COD": "761", "Nominativo": "G.P. IMMOBILIARE S.R.L.", "Data_Conv": "1998\/02\/27", "Localita": "VIA OMASSI, VIA PILASTRONI, VIA VITTIME CIVILI DI GUERRA", "Oggetto": "OPERE DI URBANIZZAZIONE, CESSIONE DI AREE E SERVITU' DI USO PUBBLICO.", "Rif_Note": "N.C.T.R. FG. 202  6^ CIRCOSCRIZIONE", "Note": null }, "geometry": { "type": "Point", "coordinates": [ 10.202519, 45.521752, 0.0 ] } },
{ "type": "Feature", "properties": { "COD": "634", "Nominativo": "SOC. S.ZENO E FERRONATO RITA NIVES", "Data_Conv": "1982\/11\/23", "Localita": "VIA S.ZENO", "Oggetto": "STRADE - PARCHEGGI - VERDE PUBBLICO", "Rif_Note": "N.C.T.R. FG. 206  6^ CIRC.", "Note": null }, "geometry": { "type": "Point", "coordinates": [ 10.216908, 45.518018, 0.0 ] } },
{ "type": "Feature", "properties": { "COD": "630", "Nominativo": "SOC.IMM. CADORE DI LONATI, CANCARINI ED EREDI POLI", "Data_Conv": "1982\/03\/10", "Localita": "VIA ZIZIOLA", "Oggetto": "STRADE - PARCHEGGI - VERDE PUBBLICO", "Rif_Note": "N.C.T.R. FG. 206  6^ CIRC.", "Note": null }, "geometry": { "type": "Point", "coordinates": [ 10.219809, 45.519016, 0.0 ] } },
{ "type": "Feature", "properties": { "COD": "630", "Nominativo": "SOC.IMM. CADORE DI LONATI, CANCARINI ED EREDI POLI", "Data_Conv": "1982\/03\/10", "Localita": "VIA ZIZIOLA", "Oggetto": "STRADE - PARCHEGGI - VERDE PUBBLICO", "Rif_Note": "N.C.T.R. FG. 206  6^ CIRC.", "Note": null }, "geometry": { "type": "Point", "coordinates": [ 10.21804, 45.517125, 0.0 ] } },
{ "type": "Feature", "properties": { "COD": "630", "Nominativo": "SOC.IMM. CADORE DI LONATI, CANCARINI ED EREDI POLI", "Data_Conv": "1982\/03\/10", "Localita": "VIA ZIZIOLA", "Oggetto": "STRADE - PARCHEGGI - VERDE PUBBLICO", "Rif_Note": "N.C.T.R. FG. 206  6^ CIRC.", "Note": null }, "geometry": { "type": "Point", "coordinates": [ 10.217771, 45.516585, 0.0 ] } },
{ "type": "Feature", "properties": { "COD": "630", "Nominativo": "SOC.IMM. CADORE DI LONATI, CANCARINI ED EREDI POLI", "Data_Conv": "1982\/03\/10", "Localita": "VIA ZIZIOLA", "Oggetto": "STRADE - PARCHEGGI - VERDE PUBBLICO", "Rif_Note": "N.C.T.R. FG. 206  6^ CIRC.", "Note": null }, "geometry": { "type": "Point", "coordinates": [ 10.21639, 45.515032, 0.0 ] } },
{ "type": "Feature", "properties": { "COD": "431", "Nominativo": "BIANCHINI G.", "Data_Conv": "1970\/07\/28", "Localita": "S.S. GOITESE (BS-MN)", "Oggetto": "STRADE", "Rif_Note": "N.C.T.R. FG. 274  7^ CIRC.", "Note": null }, "geometry": { "type": "Point", "coordinates": [ 10.21599, 45.516599, 0.0 ] } },
{ "type": "Feature", "properties": { "COD": "319", "Nominativo": "FILIPPINI ED ALTRI", "Data_Conv": "1967\/06\/13", "Localita": "VIA RIONE", "Oggetto": "VINCOLO NON AEDIFICANDI", "Rif_Note": "N.C.T.R. FG. 257  6^ CIRC.", "Note": null }, "geometry": { "type": "Point", "coordinates": [ 10.208535, 45.496174, 0.0 ] } },
{ "type": "Feature", "properties": { "COD": "752", "Nominativo": "LONATI S.P.A.", "Data_Conv": "2000\/04\/07", "Localita": "VIA S.POLO", "Oggetto": "OPERE DI URBANIZZ. - CESSIONE  AREE - PERMUTA - PRESCRIZI. PARTICOLARI", "Rif_Note": "N.C.T.R. FGG. 179-182-183 7^ CIRCOSCRIZIONE", "Note": null }, "geometry": { "type": "Point", "coordinates": [ 10.244324, 45.525747, 0.0 ] } },
{ "type": "Feature", "properties": { "COD": "349", "Nominativo": "SOC. BENZOGAS", "Data_Conv": "1968\/01\/09", "Localita": "VIA S.POLO", "Oggetto": "VINCOLO NON AEDIFICANDI", "Rif_Note": "N.C.T.R. FG. 182  7^ CIRC.", "Note": null }, "geometry": { "type": "Point", "coordinates": [ 10.246872, 45.521147, 0.0 ] } },
{ "type": "Feature", "properties": { "COD": "241", "Nominativo": "COMINI VITTORIO E C.", "Data_Conv": "1965\/06\/22", "Localita": "VIA MANTOVA", "Oggetto": "STRADE", "Rif_Note": "N.C.T.R. FG. 179  7^ CIRC.", "Note": null }, "geometry": { "type": "Point", "coordinates": [ 10.239207, 45.528966, 0.0 ] } },
{ "type": "Feature", "properties": { "COD": "672", "Nominativo": "LA FAMIGLIA DI VIA ZIZIOLA - ZUBANI - FUSANI", "Data_Conv": "1990\/07\/03", "Localita": "TANG. SUD, VIA PALAZZINA, VIA ZIZIOLA, VIA ARDEATINE", "Oggetto": "AREE S.P. - STRADE", "Rif_Note": "N.C.T.R. FG. 233  7^ CIRC.", "Note": null }, "geometry": { "type": "Point", "coordinates": [ 10.22119, 45.512593, 0.0 ] } },
{ "type": "Feature", "properties": { "COD": "32", "Nominativo": "CODENOTTI GIULIA", "Data_Conv": "1962\/06\/06", "Localita": "VIA ZIZIOLA", "Oggetto": "STRADE", "Rif_Note": "N.C.T.R. FG. 233  7^ CIRC.", "Note": null }, "geometry": { "type": "Point", "coordinates": [ 10.222485, 45.512665, 0.0 ] } },
{ "type": "Feature", "properties": { "COD": "32", "Nominativo": "CODENOTTI GIULIA", "Data_Conv": "1962\/06\/06", "Localita": "VIA ZIZIOLA", "Oggetto": "STRADE", "Rif_Note": "N.C.T.R. FG. 233  7^ CIRC.", "Note": null }, "geometry": { "type": "Point", "coordinates": [ 10.222836, 45.514045, 0.0 ] } },
{ "type": "Feature", "properties": { "COD": "625", "Nominativo": "SOC. COOP. DON MILANI", "Data_Conv": "1981\/02\/02", "Localita": "VIA DELLE BETTOLE (BUFFALORA)", "Oggetto": "STRADE - PARCHEGGI - VERDE PUBBLICO", "Rif_Note": "N.C.T.R. FG. 274  7^ CIRC.", "Note": null }, "geometry": { "type": "Point", "coordinates": [ 10.273642, 45.493051, 0.0 ] } },
{ "type": "Feature", "properties": { "COD": "658", "Nominativo": "LEONI-ALBERTI-IMM. PACE S.R.L.-LA FAMIGLIA BUFFAL.", "Data_Conv": "1988\/10\/17", "Localita": "BUFFALORA", "Oggetto": "OPERE DI URBANIZZAZIONE - CESSIONE AREE", "Rif_Note": "N.C.T.R. FGG. 273-274-275  7^ CIRC.", "Note": null }, "geometry": { "type": "Point", "coordinates": [ 10.278221, 45.495942, 0.0 ] } },
{ "type": "Feature", "properties": { "COD": "706", "Nominativo": "TECNOIMMOBILIARE COSTRUZIONI S.R.L.", "Data_Conv": "1995\/04\/11", "Localita": "VIA PALAZZINA - VIA BOVES", "Oggetto": "OPERE DI URBANIZZAZIONE - CESSIONE DI AREE", "Rif_Note": "N.C.T.R. FG. 207  7^ CIRC.", "Note": null }, "geometry": { "type": "Point", "coordinates": [ 10.22208, 45.517717, 0.0 ] } },
{ "type": "Feature", "properties": { "COD": "50", "Nominativo": "FRANCESCONI FR.LLI E AMIGASSI PAOLA", "Data_Conv": "1962\/08\/30", "Localita": "VIA VOLTA", "Oggetto": "STRADE E VERDE PUBBLICO", "Rif_Note": "N.C.T.R. FG. 207  7^ CIRC.", "Note": null }, "geometry": { "type": "Point", "coordinates": [ 10.2227, 45.5181, 0.0 ] } },
{ "type": "Feature", "properties": { "COD": "560", "Nominativo": "ICLAR", "Data_Conv": "1976\/04\/22", "Localita": "VIA FURA - VIA MAGGIA", "Oggetto": "RIMOZIONE PENSILINA E RINUNCIA RIMBORSO SPESE", "Rif_Note": "N.C.T.R. FG. 209  7^ CIRC.", "Note": null }, "geometry": { "type": "Point", "coordinates": [ 10.230924, 45.512995, 0.0 ] } },
{ "type": "Feature", "properties": { "COD": "877", "Nominativo": "CAUTO-CANTIERE AUTOLIMITAZIONE COOP. SOCIALE A R.L.", "Data_Conv": "2011\/12\/21", "Localita": "VIA BUFFALORA", "Oggetto": "TRASFERIMENTO DI SERVITU' DI USO PUBBLICO ED OPERE DI URBANIZZAZIONE", "Rif_Note": "N.C.T.R. FG. 223  7^ CIRCOSCRIZIONE", "Note": null }, "geometry": { "type": "Point", "coordinates": [ 10.282896, 45.514255, 0.0 ] } },
{ "type": "Feature", "properties": { "COD": "96", "Nominativo": "PAGANI ANGELINA E MARIA", "Data_Conv": "1963\/02\/27", "Localita": "VIA ARICI", "Oggetto": "STRADE E VERDE STRADALE", "Rif_Note": "N.C.T.R. FG. 240  7^ CIRC.", "Note": null }, "geometry": { "type": "Point", "coordinates": [ 10.25817, 45.508617, 0.0 ] } },
{ "type": "Feature", "properties": { "COD": "7", "Nominativo": "MORETTI LIVIA IN RUSSO", "Data_Conv": "1961\/04\/08", "Localita": "VIA ARICI", "Oggetto": "STRADE", "Rif_Note": "N.C.T.R. FG. 240 7^ CIRC.", "Note": null }, "geometry": { "type": "Point", "coordinates": [ 10.261336, 45.509785, 0.0 ] } },
{ "type": "Feature", "properties": { "COD": "53", "Nominativo": "BERETTI E BULGARI", "Data_Conv": "1962\/07\/05", "Localita": "VIA BETTOLE", "Oggetto": "VINCOLO VOLUMETRIA", "Rif_Note": "N.C.T.R. FG. 266  7^ CIRC.", "Note": null }, "geometry": { "type": "Point", "coordinates": [ 10.26068, 45.501936, 0.0 ] } },
{ "type": "Feature", "properties": { "COD": "22", "Nominativo": "TONOLINI E LUSSIGNOLI", "Data_Conv": "1962\/06\/04", "Localita": "S.POLO", "Oggetto": "VINCOLO NON AEDIFICANDI", "Rif_Note": "N.C.T.R. FG. 278  7^ CIRC.", "Note": null }, "geometry": { "type": "Point", "coordinates": [ 10.259808, 45.491613, 0.0 ] } },
{ "type": "Feature", "properties": { "COD": "257", "Nominativo": "FAGLIA FR.LLI", "Data_Conv": "1965\/08\/05", "Localita": "MADDALENA", "Oggetto": "STRADE", "Rif_Note": "N.C.T.R. FG. 100  8^ CIRC.", "Note": null }, "geometry": { "type": "Point", "coordinates": [ 10.271047, 45.545735, 0.0 ] } },
{ "type": "Feature", "properties": { "COD": "596", "Nominativo": "GAETI", "Data_Conv": "1977\/05\/09", "Localita": "VIA TURATI", "Oggetto": "PROVVISORIETA' OPERE EDILI E RINUNCIA INDENNITA'", "Rif_Note": "N.C.T.R. FG. 123  8^ CIRC.", "Note": null }, "geometry": { "type": "Point", "coordinates": [ 10.232307, 45.53678, 0.0 ] } },
{ "type": "Feature", "properties": { "COD": "78", "Nominativo": "PIERINI ADELE", "Data_Conv": "1962\/12\/13", "Localita": "VIA VALSORDA", "Oggetto": "VINCOLI IN LOTTI PRIVATI - LOTTIZZAZIONE", "Rif_Note": "N.C.T.R. FG. 125  8^ CIRC.", "Note": null }, "geometry": { "type": "Point", "coordinates": [ 10.24457, 45.538145, 0.0 ] } },
{ "type": "Feature", "properties": { "COD": "187", "Nominativo": "TOGNAZZI ANGELO", "Data_Conv": "1964\/04\/15", "Localita": "VIA S.ORSOLA", "Oggetto": "STRADE", "Rif_Note": "N.C.T.R. FG. 156  8^ CIRC.", "Note": null }, "geometry": { "type": "Point", "coordinates": [ 10.293006, 45.529857, 0.0 ] } },
{ "type": "Feature", "properties": { "COD": "18", "Nominativo": "COTELLI MARCELLO", "Data_Conv": "1962\/04\/24", "Localita": "V.LE S.EUFEMIA 107", "Oggetto": "IMPEGNO INDENNITA' ESPROPRIO PER NUOVA COSTRUZIONE", "Rif_Note": "N.C.T.R. FG. 194  8^ CIRC.", "Note": null }, "geometry": { "type": "Point", "coordinates": [ 10.282827, 45.5198, 0.0 ] } },
{ "type": "Feature", "properties": { "COD": "693", "Nominativo": "PROGETTO CASA S.R.L. - S.I.B. S.R.L. - ALTRI", "Data_Conv": "1994\/03\/07", "Localita": "CAIONVICO", "Oggetto": "OPERE DI URBANIZZAZIONE - CESSIONE DI AREE - SERVITU' DI USO PUBBLICO", "Rif_Note": "N.C.T.R. FGG. 195-196  8^ CIRC.", "Note": null }, "geometry": { "type": "Point", "coordinates": [ 10.289721, 45.523073, 0.0 ] } },
{ "type": "Feature", "properties": { "COD": "670", "Nominativo": "ARDESI-GARFIN S.P.A.-MINERVA-TORNADO S.R.L.-ALTRI", "Data_Conv": "1990\/05\/03", "Localita": "VIA GOLDONI", "Oggetto": "STRADE - AREE S.P.", "Rif_Note": "N.C.T.R. FGG. 156-196  8^ CIRC.", "Note": null }, "geometry": { "type": "Point", "coordinates": [ 10.291784, 45.525282, 0.0 ] } },
{ "type": "Feature", "properties": { "COD": "655", "Nominativo": "SOC. INVESTIMENTI VENETI", "Data_Conv": "1988\/06\/15", "Localita": "VIALE VENEZIA", "Oggetto": "VERDE PUBBLICO", "Rif_Note": "N.C.T.R. FG. 151  8^ CIRC.", "Note": null }, "geometry": { "type": "Point", "coordinates": [ 10.247974, 45.531337, 0.0 ] } },
{ "type": "Feature", "properties": { "COD": "822", "Nominativo": "BERTOLOTTI E DAMIANI S.P.A.", "Data_Conv": "2008\/06\/23", "Localita": "VIALE SANT'EUFEMIA", "Oggetto": "MODIFICHE ALLA CONVENZIONE 770", "Rif_Note": "N.C.T.R. FG. 190  7^ CIRCOSCRIZIONE", "Note": null }, "geometry": { "type": "Point", "coordinates": [ 10.266989, 45.523872, 0.0 ] } },
{ "type": "Feature", "properties": { "COD": "402", "Nominativo": "COOP. LA FAMIGLIA", "Data_Conv": "1968\/11\/26", "Localita": "VIA VAL CAROBBIO - VIALE S.EUFEMIA", "Oggetto": "VINCOLO AREA NON AEDIFICANDI", "Rif_Note": "N.C.T.R. FG. 191  8^ CIRC.", "Note": null }, "geometry": { "type": "Point", "coordinates": [ 10.274162, 45.526954, 0.0 ] } },
{ "type": "Feature", "properties": { "COD": "820", "Nominativo": "FRECCIA ROSSA SHOPPING CENTRE S.R.L.", "Data_Conv": "2008\/03\/31", "Localita": "COMPARTO MILANO", "Oggetto": "OPERE DI URBANIZZAZIONE (ATTO INTEGRATIVO CONVENZIONE 792)", "Rif_Note": "N.C.T.R. FG. 116  9^ CIRCOSCRIZIONE", "Note": null }, "geometry": { "type": "Point", "coordinates": [ 10.210145, 45.535818, 0.0 ] } },
{ "type": "Feature", "properties": { "COD": "455", "Nominativo": "SOC. PORCELLAGA S.P.A.", "Data_Conv": "1971\/06\/22", "Localita": "VIA PORCELLAGA - VICOLO DELLA COSTANZA", "Oggetto": "SERVITU' PASSAGGIO PORTICI - STRADA (SUPERATA DA SERVITU' N.119)", "Rif_Note": "N.C.T.R. FG. 120  9^ CIRC.", "Note": null }, "geometry": { "type": "Point", "coordinates": [ 10.217926, 45.538465, 0.0 ] } },
{ "type": "Feature", "properties": { "COD": "652", "Nominativo": "SOC. VECCHIO GAMBERO - SOC. CENTRO STORICO", "Data_Conv": "1988\/03\/11", "Localita": "TRAVERSA DEL GAMBERO", "Oggetto": "STRADE - SPAZI PUBBLICI   (10.10.91 CONSEGNATA ALLA DOTT.SSA NATOLI)", "Rif_Note": "N.C.T.R. FG. 137  9^ CIRC.", "Note": null }, "geometry": { "type": "Point", "coordinates": [ 10.219812, 45.536583, 0.0 ] } },
{ "type": "Feature", "properties": { "COD": "866", "Nominativo": "S.P.A. IMMOBILIARE - FIERA DI BRESCIA", "Data_Conv": "2011\/02\/25", "Localita": "VIA ORZINUOVI - TANG. OVEST - TANG. SUD - VIA GHISLANDI - VIA CAPRERA", "Oggetto": "MODIFICA CONVENZIONE 805", "Rif_Note": "N.C.T.R. FGG. 157, 158, 159, 197, 198, 227 E 228 5^ CIRC.", "Note": null }, "geometry": { "type": "Point", "coordinates": [ 10.172437, 45.526364, 0.0 ] } },
{ "type": "Feature", "properties": { "COD": "919", "Nominativo": "S.P.A. IMMOBILIARE - FIERA DI BRESCIA", "Data_Conv": "2005\/08\/01", "Localita": "VIA ORZINUOVI - TANG. OVEST - TANG. SUD - VIA GHISLANDI - VIA CAPRERA", "Oggetto": "OPERE DI URBANIZZAZIONE - CESSIONE DI AREE - SERVITU' DI USO PUBBLICO", "Rif_Note": "N.C.T.R. FGG. 157, 158, 159, 197, 198, 227 E 228 5^ CIRC.", "Note": null }, "geometry": { "type": "Point", "coordinates": [ 10.172655, 45.527892, 0.0 ] } },
{ "type": "Feature", "properties": { "COD": "805", "Nominativo": "S.P.A. IMMOBILIARE - FIERA DI BRESCIA", "Data_Conv": "2005\/08\/01", "Localita": "VIA ORZINUOVI - TANG. OVEST - TANG. SUD - VIA GHISLANDI - VIA CAPRERA", "Oggetto": "OPERE DI URBANIZZAZIONE - CESSIONE DI AREE - SERVITU' DI USO PUBBLICO", "Rif_Note": "N.C.T.R. FGG. 157, 158, 159, 197, 198, 227 E 228 5^ CIRC.", "Note": null }, "geometry": { "type": "Point", "coordinates": [ 10.172722, 45.525286, 0.0 ] } },
{ "type": "Feature", "properties": { "COD": "571", "Nominativo": null, "Data_Conv": null, "Localita": null, "Oggetto": null, "Rif_Note": null, "Note": null }, "geometry": { "type": "Point", "coordinates": [ 10.20504717, 45.56988544, 0.0 ] } },
{ "type": "Feature", "properties": { "COD": "272", "Nominativo": null, "Data_Conv": null, "Localita": null, "Oggetto": null, "Rif_Note": null, "Note": null }, "geometry": { "type": "Point", "coordinates": [ 10.23623656, 45.5636496, 0.0 ] } },
{ "type": "Feature", "properties": { "COD": "272", "Nominativo": null, "Data_Conv": null, "Localita": null, "Oggetto": null, "Rif_Note": null, "Note": null }, "geometry": { "type": "Point", "coordinates": [ 10.23722531, 45.56507843, 0.0 ] } },
{ "type": "Feature", "properties": { "COD": "5", "Nominativo": null, "Data_Conv": null, "Localita": null, "Oggetto": null, "Rif_Note": null, "Note": null }, "geometry": { "type": "Point", "coordinates": [ 10.22811032, 45.55640741, 0.0 ] } },
{ "type": "Feature", "properties": { "COD": "381", "Nominativo": null, "Data_Conv": null, "Localita": null, "Oggetto": null, "Rif_Note": null, "Note": null }, "geometry": { "type": "Point", "coordinates": [ 10.16320796, 45.53733931, 0.0 ] } },
{ "type": "Feature", "properties": { "COD": "40", "Nominativo": null, "Data_Conv": null, "Localita": null, "Oggetto": null, "Rif_Note": null, "Note": null }, "geometry": { "type": "Point", "coordinates": [ 10.22082755, 45.52422033, 0.0 ] } },
{ "type": "Feature", "properties": { "COD": "679", "Nominativo": null, "Data_Conv": null, "Localita": null, "Oggetto": null, "Rif_Note": null, "Note": null }, "geometry": { "type": "Point", "coordinates": [ 10.21450713, 45.52353878, 0.0 ] } },
{ "type": "Feature", "properties": { "COD": "654", "Nominativo": null, "Data_Conv": null, "Localita": null, "Oggetto": null, "Rif_Note": null, "Note": null }, "geometry": { "type": "Point", "coordinates": [ 10.23991561, 45.5258897, 0.0 ] } },
{ "type": "Feature", "properties": { "COD": "556", "Nominativo": null, "Data_Conv": null, "Localita": null, "Oggetto": null, "Rif_Note": null, "Note": null }, "geometry": { "type": "Point", "coordinates": [ 10.25439961, 45.49648427, 0.0 ] } }
]
}
